# 
# Header Description:
# 
# Version: v3.0.0.1 Platform: 11 Manufacturer: Xiaomi Model: M2007J17G
# 
# Raw,utcTimeMillis,TimeNanos,LeapSecond,TimeUncertaintyNanos,FullBiasNanos,BiasNanos,BiasUncertaintyNanos,DriftNanosPerSecond,DriftUncertaintyNanosPerSecond,HardwareClockDiscontinuityCount,Svid,TimeOffsetNanos,State,ReceivedSvTimeNanos,ReceivedSvTimeUncertaintyNanos,Cn0DbHz,PseudorangeRateMetersPerSecond,PseudorangeRateUncertaintyMetersPerSecond,AccumulatedDeltaRangeState,AccumulatedDeltaRangeMeters,AccumulatedDeltaRangeUncertaintyMeters,CarrierFrequencyHz,CarrierCycles,CarrierPhase,CarrierPhaseUncertainty,MultipathIndicator,SnrInDb,ConstellationType,AgcDb,BasebandCn0DbHz,FullInterSignalBiasNanos,FullInterSignalBiasUncertaintyNanos,SatelliteInterSignalBiasNanos,SatelliteInterSignalBiasUncertaintyNanos,CodeType,ChipsetElapsedRealtimeNanos
# 
# UncalAccel,utcTimeMillis,elapsedRealtimeNanos,UncalAccelXMps2,UncalAccelYMps2,UncalAccelZMps2,BiasXMps2,BiasYMps2,BiasZMps2
# 
# UncalGyro,utcTimeMillis,elapsedRealtimeNanos,UncalGyroXRadPerSec,UncalGyroYRadPerSec,UncalGyroZRadPerSec,DriftXRadPerSec,DriftYRadPerSec,DriftZRadPerSec
# 
# UncalMag,utcTimeMillis,elapsedRealtimeNanos,UncalMagXMicroT,UncalMagYMicroT,UncalMagZMicroT,BiasXMicroT,BiasYMicroT,BiasZMicroT
# 
# OrientationDeg,utcTimeMillis,elapsedRealtimeNanos,yawDeg,rollDeg,pitchDeg
# 
# Fix,Provider,LatitudeDegrees,LongitudeDegrees,AltitudeMeters,SpeedMps,AccuracyMeters,BearingDegrees,UnixTimeMillis,SpeedAccuracyMps,BearingAccuracyDegrees,elapsedRealtimeNanos
# 
# Nav,Svid,Type,Status,MessageId,Sub-messageId,Data(Bytes)
# 
# Status,UnixTimeMillis,SignalCount,SignalIndex,ConstellationType,Svid,CarrierFrequencyHz,Cn0DbHz,AzimuthDegrees,ElevationDegrees,UsedInFix,HasAlmanacData,HasEphemerisData,BasebandCn0DbHz
# 
OrientationDeg,1619275260710,243201430858251,169,-2,-4
OrientationDeg,1619275260720,243201440840803,169,-2,-4
OrientationDeg,1619275260730,243201450823355,169,-2,-5
OrientationDeg,1619275260739,243201460805907,169,-2,-5
OrientationDeg,1619275260750,243201470788459,168,-2,-5
OrientationDeg,1619275260759,243201480771011,168,-2,-6
OrientationDeg,1619275260770,243201490753564,168,-2,-6
OrientationDeg,1619275260780,243201500736116,168,-2,-6
OrientationDeg,1619275260790,243201510718668,168,-2,-7
OrientationDeg,1619275260799,243201520701220,168,-2,-7
OrientationDeg,1619275260810,243201530684293,168,-2,-8
OrientationDeg,1619275260820,243201540667209,167,-2,-8
OrientationDeg,1619275260830,243201550649814,167,-1,-8
OrientationDeg,1619275260840,243201560632418,166,-1,-9
OrientationDeg,1619275260850,243201570614970,166,-1,-9
OrientationDeg,1619275260860,243201580597522,165,-1,-10
OrientationDeg,1619275260870,243201590580074,165,-1,-10
OrientationDeg,1619275260879,243201600562626,164,-1,-11
OrientationDeg,1619275260890,243201610545178,164,-1,-12
OrientationDeg,1619275260900,243201620527730,163,-1,-12
OrientationDeg,1619275260910,243201630510282,163,-2,-12
OrientationDeg,1619275260920,243201640492834,163,-2,-12
OrientationDeg,1619275260930,243201650475386,163,-2,-12
OrientationDeg,1619275260939,243201660457939,163,-2,-11
OrientationDeg,1619275260950,243201670440491,162,-2,-11
OrientationDeg,1619275260959,243201680423043,162,-1,-10
OrientationDeg,1619275260970,243201690405595,161,-1,-10
OrientationDeg,1619275260979,243201700388147,161,-1,-10
OrientationDeg,1619275260990,243201710370699,160,-1,-10
OrientationDeg,1619275261000,243201720353251,159,-2,-10
OrientationDeg,1619275261010,243201730335803,158,-2,-9
OrientationDeg,1619275261020,243201740318355,157,-2,-9
OrientationDeg,1619275261030,243201750300907,156,-2,-10
OrientationDeg,1619275261039,243201760283459,155,-3,-10
OrientationDeg,1619275261050,243201770266011,154,-3,-10
OrientationDeg,1619275261060,243201780248564,153,-4,-10
OrientationDeg,1619275261070,243201790231116,152,-4,-10
OrientationDeg,1619275261080,243201800213668,151,-5,-9
OrientationDeg,1619275261090,243201810196220,150,-5,-9
OrientationDeg,1619275261100,243201820178772,149,-6,-9
OrientationDeg,1619275261109,243201830161324,148,-7,-9
OrientationDeg,1619275261120,243201840143876,147,-8,-8
OrientationDeg,1619275261130,243201850126428,146,-8,-8
OrientationDeg,1619275261140,243201860108980,146,-9,-7
OrientationDeg,1619275261149,243201870091584,145,-10,-6
OrientationDeg,1619275261159,243201880074189,145,-10,-6
OrientationDeg,1619275261170,243201890056793,144,-11,-5
OrientationDeg,1619275261180,243201900039397,144,-12,-5
OrientationDeg,1619275261190,243201910022001,143,-13,-4
OrientationDeg,1619275261200,243201920004605,143,-14,-3
OrientationDeg,1619275261209,243201929987209,142,-15,-3
OrientationDeg,1619275261219,243201939969814,142,-15,-2
OrientationDeg,1619275261229,243201949952418,142,-15,-1
OrientationDeg,1619275261239,243201959935022,141,-16,-1
OrientationDeg,1619275261249,243201969917626,140,-16,0
OrientationDeg,1619275261259,243201979900230,140,-17,0
OrientationDeg,1619275261269,243201989882834,139,-18,0
OrientationDeg,1619275261279,243201999865439,138,-18,0
OrientationDeg,1619275261289,243202009848043,137,-19,0
OrientationDeg,1619275261299,243202019830647,136,-19,0
OrientationDeg,1619275261309,243202029813251,136,-19,1
OrientationDeg,1619275261319,243202039795855,135,-19,1
OrientationDeg,1619275261329,243202049778459,134,-19,1
OrientationDeg,1619275261339,243202059761064,134,-19,1
OrientationDeg,1619275261349,243202069743668,133,-19,1
OrientationDeg,1619275261359,243202079726272,132,-19,2
OrientationDeg,1619275261368,243202089708876,132,-19,2
OrientationDeg,1619275261379,243202099691480,131,-18,2
OrientationDeg,1619275261388,243202109674084,130,-18,2
OrientationDeg,1619275261399,243202119656689,130,-18,2
OrientationDeg,1619275261408,243202129639293,129,-18,2
Raw,1619275262441,159787895000000,18,,-1303150692546594591,0.06786918640136719,61.47498788777739,-0.622065368748408,10.303041727134278,38,10,0.0,16399,571280362681867,31,26.9,-655.5712280273438,0.7294999957084656,16,0.0,0.0,1.57542003E9,,,,0,,1,1.57,23.299999999999997,0.0,0.0,,,C,243201578296156
Raw,1619275262441,159787895000000,18,,-1303150692546594591,0.06786918640136719,61.47498788777739,-0.622065368748408,10.303041727134278,38,16,0.0,16399,571280372430447,31,27.4,-202.64373779296875,0.684499979019165,16,0.0,0.0,1.57542003E9,,,,0,,1,1.57,23.799999999999997,0.0,0.0,,,C,243201578296156
Raw,1619275262441,159787895000000,18,,-1303150692546594591,0.06786918640136719,61.47498788777739,-0.622065368748408,10.303041727134278,38,18,0.0,16399,571280373110669,9,39.0,264.81304931640625,0.04130000248551369,16,-0.0,1902.9177342976868,1.57542003E9,,,,0,,1,1.57,35.4,0.0,0.0,,,C,243201578296156
Raw,1619275262441,159787895000000,18,,-1303150692546594591,0.06786918640136719,61.47498788777739,-0.622065368748408,10.303041727134278,38,20,0.0,16399,571280368695795,9,39.0,121.30431365966797,0.03380000218749046,16,-0.0,1902.9177342976868,1.57542003E9,,,,0,,1,1.57,35.4,0.0,0.0,,,C,243201578296156
Raw,1619275262441,159787895000000,18,,-1303150692546594591,0.06786918640136719,61.47498788777739,-0.622065368748408,10.303041727134278,38,23,0.0,16399,571280368392495,10,38.1,-443.22991943359375,0.03440000116825104,16,-0.0,1902.9177342976868,1.57542003E9,,,,0,,1,1.57,34.5,0.0,0.0,,,C,243201578296156
Raw,1619275262441,159787895000000,18,,-1303150692546594591,0.06786918640136719,61.47498788777739,-0.622065368748408,10.303041727134278,38,26,0.0,16399,571280373076276,46,23.7,164.5183868408203,0.9359999895095825,16,0.0,0.0,1.57542003E9,,,,0,,1,1.57,20.099999999999998,0.0,0.0,,,C,243201578296156
Raw,1619275262441,159787895000000,18,,-1303150692546594591,0.06786918640136719,61.47498788777739,-0.622065368748408,10.303041727134278,38,29,0.0,16399,571280362738323,11,36.8,545.7767944335938,0.026200000196695328,16,-0.0,1902.9177342976868,1.57542003E9,,,,0,,1,1.57,33.199999999999996,0.0,0.0,,,C,243201578296156
Raw,1619275262441,159787895000000,18,,-1303150692546594591,0.06786918640136719,61.47498788777739,-0.622065368748408,10.303041727134278,38,2,0.0,49359,63662366495821,9,39.1,33.57138442993164,0.030800001695752144,16,-0.0,1873.9769888276273,1.59975002E9,,,,0,,3,-1.21,35.1,3818.577880859375,11.606720924377441,,,C,243201578296156
Raw,1619275262441,159787895000000,18,,-1303150692546594591,0.06786918640136719,61.47498788777739,-0.622065368748408,10.303041727134278,38,18,0.0,49359,63662373834189,10,38.3,393.65960693359375,0.04190000146627426,16,-0.0,1873.3183770502228,1.60031245E9,,,,0,,3,-1.21,34.3,3818.577880859375,11.606720924377441,,,C,243201578296156
Raw,1619275262441,159787895000000,18,,-1303150692546594591,0.06786918640136719,61.47498788777739,-0.622065368748408,10.303041727134278,38,9,0.0,49359,63662374514750,40,25.4,-93.85865783691406,0.8075000047683716,16,0.0,0.0,1.60087501E9,,,,0,,3,-1.21,21.4,3818.577880859375,11.606720924377441,,,C,243201578296156
Raw,1619275262441,159787895000000,18,,-1303150692546594591,0.06786918640136719,61.47498788777739,-0.622065368748408,10.303041727134278,38,3,0.0,49359,63662366074466,10,38.3,-550.3283081054688,0.03140000253915787,16,-0.0,1868.0653569596157,1.60481254E9,,,,0,,3,-1.21,34.3,3818.577880859375,11.606720924377441,,,C,243201578296156
Raw,1619275262441,159787895000000,18,,-1303150692546594591,0.06786918640136719,61.47498788777739,-0.622065368748408,10.303041727134278,38,33,0.0,16399,571266358069328,9,40.1,-33.89995193481445,0.06379999965429306,16,-0.0,1920.3757538518662,1.56109798E9,,,,0,,5,1.61,35.800000000000004,-1530.9820556640625,12.52258586883545,,,I,243201578296156
Raw,1619275262441,159787895000000,18,,-1303150692546594591,0.06786918640136719,61.47498788777739,-0.622065368748408,10.303041727134278,38,28,0.0,16399,571266361332824,12,36.7,453.31878662109375,0.02550000138580799,16,-0.0,1920.3757538518662,1.56109798E9,,,,0,,5,1.61,32.400000000000006,-1530.9820556640625,12.52258586883545,,,I,243201578296156
Raw,1619275262441,159787895000000,18,,-1303150692546594591,0.06786918640136719,61.47498788777739,-0.622065368748408,10.303041727134278,38,27,0.0,16399,571266369966371,35,26.9,29.18039894104004,0.7400000095367432,16,0.0,0.0,1.56109798E9,,,,0,,5,1.61,22.599999999999998,-1530.9820556640625,12.52258586883545,,,I,243201578296156
Raw,1619275262441,159787895000000,18,,-1303150692546594591,0.06786918640136719,61.47498788777739,-0.622065368748408,10.303041727134278,38,14,0.0,16399,571266356012610,13,36.1,226.4941864013672,0.048900000751018524,16,-0.0,1920.3757538518662,1.56109798E9,,,,0,,5,1.61,31.8,-1530.9820556640625,12.52258586883545,,,I,243201578296156
Raw,1619275262441,159787895000000,18,,-1303150692546594591,0.06786918640136719,61.47498788777739,-0.622065368748408,10.303041727134278,38,13,0.0,16399,571266310066011,11,38.2,203.88272094726562,0.03819999843835831,16,-0.0,1920.3757538518662,1.56109798E9,,,,0,,5,1.61,33.900000000000006,-1530.9820556640625,12.52258586883545,,,I,243201578296156
Raw,1619275262441,159787895000000,18,,-1303150692546594591,0.06786918640136719,61.47498788777739,-0.622065368748408,10.303041727134278,38,4,0.0,23567,571280347027686,21,31.1,-300.709228515625,0.07410000264644623,16,-0.0,1902.9177342976868,1.57542003E9,,,,0,,6,1.53,26.8,-1432.7705078125,22.389175415039062,,,C,243201578296156
Raw,1619275262441,159787895000000,18,,-1303150692546594591,0.06786918640136719,61.47498788777739,-0.622065368748408,10.303041727134278,38,9,0.0,23567,571280351256012,92,19.9,-497.6179504394531,2.0199999809265137,16,0.0,0.0,1.57542003E9,,,,0,,6,1.53,15.599999999999998,-1432.7705078125,22.389175415039062,,,C,243201578296156
Raw,1619275262441,159787895000000,18,,-1303150692546594591,0.06786918640136719,61.47498788777739,-0.622065368748408,10.303041727134278,38,11,0.0,23567,571280361705886,14,34.9,442.64849853515625,0.06650000065565109,16,-0.0,1902.9177342976868,1.57542003E9,,,,0,,6,1.53,30.599999999999998,-1432.7705078125,22.389175415039062,,,C,243201578296156
Raw,1619275262441,159787895000000,18,,-1303150692546594591,0.06786918640136719,61.47498788777739,-0.622065368748408,10.303041727134278,38,25,0.0,23567,571280353855017,27,28.9,567.8553466796875,0.6570000052452087,16,0.0,0.0,1.57542003E9,,,,0,,6,1.53,24.599999999999998,-1432.7705078125,22.389175415039062,,,C,243201578296156
Raw,1619275262441,159787895000000,18,,-1303150692546594591,0.06786918640136719,61.47498788777739,-0.622065368748408,10.303041727134278,38,30,0.0,23567,571280360395031,80,21.0,-346.59136962890625,1.8355000019073486,16,0.0,0.0,1.57542003E9,,,,0,,6,1.53,16.7,-1432.7705078125,22.389175415039062,,,C,243201578296156
Raw,1619275262441,159787895000000,18,,-1303150692546594591,0.06786918640136719,61.47498788777739,-0.622065368748408,10.303041727134278,38,36,0.0,23567,571280363763951,53,23.5,57.097618103027344,0.9539999961853027,16,0.0,0.0,1.57542003E9,,,,0,,6,1.53,19.2,-1432.7705078125,22.389175415039062,,,C,243201578296156
Raw,1619275262441,159787895000000,18,,-1303150692546594591,0.06786918640136719,61.47498788777739,-0.622065368748408,10.303041727134278,38,10,0.0,81935,571280362689676,4,35.4,-655.8696899414062,0.047200001776218414,16,-0.0,2548.2550006752426,1.17645005E9,,,,0,,1,0.21,30.5,-7842.458984375,7.060133934020996,,,Q,243201578296156
Raw,1619275262441,159787895000000,18,,-1303150692546594591,0.06786918640136719,61.47498788777739,-0.622065368748408,10.303041727134278,38,18,0.0,81935,571280373118488,2,39.2,264.7800598144531,0.05900000408291817,16,-0.0,2548.2550006752426,1.17645005E9,,,,0,,1,0.21,34.300000000000004,-7842.458984375,7.060133934020996,,,Q,243201578296156
Raw,1619275262441,159787895000000,18,,-1303150692546594591,0.06786918640136719,61.47498788777739,-0.622065368748408,10.303041727134278,38,23,0.0,81935,571280368400345,4,34.6,-443.21826171875,0.058000002056360245,16,-0.0,2548.2550006752426,1.17645005E9,,,,0,,1,0.21,29.700000000000003,-7842.458984375,7.060133934020996,,,Q,243201578296156
Raw,1619275262441,159787895000000,18,,-1303150692546594591,0.06786918640136719,61.47498788777739,-0.622065368748408,10.303041727134278,38,4,0.0,81935,571280347034037,6,31.3,-301.0183410644531,0.06760000437498093,16,-0.0,2548.2550006752426,1.17645005E9,,,,0,,6,0.21,26.0,-7802.88671875,132.02500915527344,,,Q,243201578296156
Raw,1619275262441,159787895000000,18,,-1303150692546594591,0.06786918640136719,61.47498788777739,-0.622065368748408,10.303041727134278,38,9,0.0,81935,571280351262362,10,25.5,-497.76141357421875,0.10719999670982361,16,-0.0,2548.2550006752426,1.17645005E9,,,,0,,6,0.21,20.2,-7802.88671875,132.02500915527344,,,Q,243201578296156
Raw,1619275262441,159787895000000,18,,-1303150692546594591,0.06786918640136719,61.47498788777739,-0.622065368748408,10.303041727134278,38,11,0.0,81935,571280361712260,4,34.7,442.6249084472656,0.04749999940395355,16,-0.0,2548.2550006752426,1.17645005E9,,,,0,,6,0.21,29.400000000000002,-7802.88671875,132.02500915527344,,,Q,243201578296156
Raw,1619275262441,159787895000000,18,,-1303150692546594591,0.06786918640136719,61.47498788777739,-0.622065368748408,10.303041727134278,38,25,0.0,81935,571280353861374,9,26.6,568.0086669921875,0.07990000396966934,16,-0.0,2548.2550006752426,1.17645005E9,,,,0,,6,0.21,21.3,-7802.88671875,132.02500915527344,,,Q,243201578296156
Raw,1619275262441,159787895000000,18,,-1303150692546594591,0.06786918640136719,61.47498788777739,-0.622065368748408,10.303041727134278,38,30,0.0,81935,571280360401390,14,23.2,-346.298583984375,0.9314999580383301,16,0.0,0.0,1.17645005E9,,,,0,,6,0.21,17.9,-7802.88671875,132.02500915527344,,,Q,243201578296156
Raw,1619275262441,159787895000000,18,,-1303150692546594591,0.06786918640136719,61.47498788777739,-0.622065368748408,10.303041727134278,38,36,0.0,81935,571280363770292,10,25.6,57.0687370300293,0.8059999942779541,16,0.0,0.0,1.17645005E9,,,,0,,6,0.21,20.3,-7802.88671875,132.02500915527344,,,Q,243201578296156
Raw,1619275262441,159787895000000,18,,-1303150692546594591,0.06786918640136719,61.47498788777739,-0.622065368748408,10.303041727134278,38,27,0.0,16399,571266369972667,9,26.1,29.01230239868164,0.1039000004529953,16,-0.0,2548.2550006752426,1.17645005E9,,,,0,,5,0.21,21.6,-7791.10595703125,130.20416259765625,,,Q,243201578296156
Raw,1619275262441,159787895000000,18,,-1303150692546594591,0.06786918640136719,61.47498788777739,-0.622065368748408,10.303041727134278,38,28,0.0,16399,571266361339102,3,36.2,453.3045349121094,0.07429999858140945,16,-0.0,2548.2550006752426,1.17645005E9,,,,0,,5,0.21,31.700000000000003,-7791.10595703125,130.20416259765625,,,Q,243201578296156
Raw,1619275262441,159787895000000,18,,-1303150692546594591,0.06786918640136719,61.47498788777739,-0.622065368748408,10.303041727134278,38,2,0.0,16399,571280307199633,21,31.4,158.7547149658203,0.07110000401735306,16,-0.0,2548.2550006752426,1.17645005E9,,,,0,,7,0.1,26.099999999999998,,,,,C,243201578296156
Raw,1619275262441,159787895000000,18,,-1303150692546594591,0.06786918640136719,61.47498788777739,-0.622065368748408,10.303041727134278,38,3,0.0,16399,571280304472131,19,32.5,-12.95389175415039,0.04820000007748604,16,-0.0,2548.2550006752426,1.17645005E9,,,,0,,7,0.1,27.2,,,,,C,243201578296156
Raw,1619275262441,159787895000000,18,,-1303150692546594591,0.06786918640136719,61.47498788777739,-0.622065368748408,10.303041727134278,38,6,0.0,16399,571280312844899,27,29.7,6.816649913787842,0.5945000052452087,16,0.0,0.0,1.17645005E9,,,,0,,7,0.1,24.4,,,,,C,243201578296156
Raw,1619275262441,159787895000000,18,,-1303150692546594591,0.06786918640136719,61.47498788777739,-0.622065368748408,10.303041727134278,38,9,0.0,16399,571280314712470,19,32.9,-159.92066955566406,0.06319999694824219,16,-0.0,2548.2550006752426,1.17645005E9,,,,0,,7,0.1,27.599999999999998,,,,,C,243201578296156
OrientationDeg,1619275261419,243202139621897,128,-18,2
OrientationDeg,1619275261429,243202149604501,127,-19,2
OrientationDeg,1619275261438,243202159587105,127,-19,2
OrientationDeg,1619275261449,243202169569709,126,-19,2
OrientationDeg,1619275261459,243202179552314,125,-19,2
OrientationDeg,1619275261469,243202189534918,125,-19,2
OrientationDeg,1619275261478,243202199517522,124,-20,2
OrientationDeg,1619275261489,243202209500126,124,-20,2
OrientationDeg,1619275261499,243202219482730,123,-20,2
OrientationDeg,1619275261509,243202229465334,122,-20,2
OrientationDeg,1619275261519,243202239447939,122,-20,2
OrientationDeg,1619275261528,243202249430543,121,-20,2
OrientationDeg,1619275261539,243202259413147,120,-21,2
OrientationDeg,1619275261549,243202269395751,120,-21,2
OrientationDeg,1619275261559,243202279378355,119,-22,2
OrientationDeg,1619275261569,243202289360959,119,-22,2
OrientationDeg,1619275261578,243202299343564,118,-23,2
OrientationDeg,1619275261589,243202309326168,117,-23,2
OrientationDeg,1619275261599,243202319308772,117,-22,2
OrientationDeg,1619275261609,243202329291376,117,-21,2
OrientationDeg,1619275261619,243202339273980,116,-20,3
OrientationDeg,1619275261628,243202349256584,116,-20,3
OrientationDeg,1619275261639,243202359239189,116,-20,3
OrientationDeg,1619275261649,243202369221793,116,-20,3
OrientationDeg,1619275261659,243202379204397,115,-19,3
OrientationDeg,1619275261669,243202389187001,115,-19,3
OrientationDeg,1619275261679,243202399169605,115,-19,3
OrientationDeg,1619275261689,243202409152209,115,-20,4
OrientationDeg,1619275261698,243202419134814,115,-20,4
OrientationDeg,1619275261708,243202429117418,114,-20,3
OrientationDeg,1619275261718,243202439100022,114,-21,3
OrientationDeg,1619275261728,243202449082626,114,-21,3
OrientationDeg,1619275261738,243202459065230,114,-21,3
OrientationDeg,1619275261749,243202469047834,114,-22,3
OrientationDeg,1619275261759,243202479030439,113,-23,2
OrientationDeg,1619275261769,243202489013043,113,-23,1
OrientationDeg,1619275261778,243202498995647,113,-23,1
OrientationDeg,1619275261788,243202508978251,113,-24,1
OrientationDeg,1619275261798,243202518960855,112,-24,1
OrientationDeg,1619275261808,243202528943459,112,-25,1
OrientationDeg,1619275261818,243202538926064,112,-25,0
OrientationDeg,1619275261828,243202548908668,112,-26,0
OrientationDeg,1619275261838,243202558891272,112,-26,0
OrientationDeg,1619275261848,243202568873876,112,-26,-1
OrientationDeg,1619275261858,243202578856480,112,-25,-1
OrientationDeg,1619275261868,243202588839084,112,-25,0
OrientationDeg,1619275261878,243202598821689,112,-24,0
OrientationDeg,1619275261888,243202608804293,112,-23,0
OrientationDeg,1619275261897,243202618786897,112,-23,-1
OrientationDeg,1619275261907,243202628769501,112,-22,-1
OrientationDeg,1619275261917,243202638752105,112,-22,-1
OrientationDeg,1619275261928,243202648734709,112,-22,-1
OrientationDeg,1619275261938,243202658717314,112,-21,-1
OrientationDeg,1619275261948,243202668699918,112,-21,-1
OrientationDeg,1619275261957,243202678682522,112,-20,-1
OrientationDeg,1619275261968,243202688665126,112,-19,-1
OrientationDeg,1619275261978,243202698647730,111,-19,-1
OrientationDeg,1619275261988,243202708630334,111,-18,-1
OrientationDeg,1619275261998,243202718612939,111,-16,-1
OrientationDeg,1619275262008,243202728595543,111,-15,-1
OrientationDeg,1619275262018,243202738578147,111,-15,-1
OrientationDeg,1619275262027,243202748560751,111,-14,-1
OrientationDeg,1619275262038,243202758543355,111,-14,-1
OrientationDeg,1619275262047,243202768525959,111,-14,-1
OrientationDeg,1619275262058,243202778508564,111,-14,-1
OrientationDeg,1619275262068,243202788491168,111,-14,-1
OrientationDeg,1619275262078,243202798473772,111,-13,-1
OrientationDeg,1619275262087,243202808456376,111,-13,-1
OrientationDeg,1619275262098,243202818438980,111,-13,-1
OrientationDeg,1619275262108,243202828421584,111,-12,-1
OrientationDeg,1619275262118,243202838404189,111,-12,-1
OrientationDeg,1619275262127,243202848386793,111,-11,-1
OrientationDeg,1619275262137,243202858369397,111,-11,-1
OrientationDeg,1619275262148,243202868352001,111,-11,-1
OrientationDeg,1619275262158,243202878334605,110,-11,-1
OrientationDeg,1619275262168,243202888317209,110,-11,-1
OrientationDeg,1619275262178,243202898299814,110,-11,-1
OrientationDeg,1619275262187,243202908282418,110,-11,-1
OrientationDeg,1619275262197,243202918265022,111,-11,-1
OrientationDeg,1619275262208,243202928247626,111,-10,-1
OrientationDeg,1619275262218,243202938230230,111,-10,-1
OrientationDeg,1619275262227,243202948212834,111,-10,-1
OrientationDeg,1619275262238,243202958195439,112,-9,-1
OrientationDeg,1619275262248,243202968178043,112,-9,-1
OrientationDeg,1619275262258,243202978160647,112,-8,-1
OrientationDeg,1619275262268,243202988143251,112,-8,-1
OrientationDeg,1619275262278,243202998125855,113,-7,-1
OrientationDeg,1619275262288,243203008108459,113,-7,-1
OrientationDeg,1619275262297,243203018091064,113,-7,-1
OrientationDeg,1619275262308,243203028073668,113,-7,-1
OrientationDeg,1619275262317,243203038056272,113,-6,-1
OrientationDeg,1619275262328,243203048038876,113,-6,-1
OrientationDeg,1619275262338,243203058021480,113,-5,-1
OrientationDeg,1619275262348,243203068004084,113,-4,-1
OrientationDeg,1619275262357,243203077986689,113,-3,-1
OrientationDeg,1619275262367,243203087969293,113,-1,-2
OrientationDeg,1619275262377,243203097951897,113,-1,-1
OrientationDeg,1619275262386,243203107934501,113,-2,-2
OrientationDeg,1619275262397,243203117917105,113,-1,-2
OrientationDeg,1619275262407,243203127899709,113,-2,-2
OrientationDeg,1619275262416,243203137882314,113,-2,-2
Raw,1619275263441,159788895000000,18,,-1303150692546594598,0.3623466491699219,57.173056120518595,-0.2937080084322355,10.364288531523028,38,10,0.0,16399,571281362683994,35,26.3,-656.4560546875,0.7294999957084656,16,0.0,0.0,1.57542003E9,,,,0,,1,2.08,22.7,0.0,0.0,,,C,243202576133812
Raw,1619275263441,159788895000000,18,,-1303150692546594598,0.3623466491699219,57.173056120518595,-0.2937080084322355,10.364288531523028,38,18,0.0,16399,571281373109782,11,37.5,264.0220031738281,0.04270000010728836,16,-0.0,1902.9177342976868,1.57542003E9,,,,0,,1,2.08,33.9,0.0,0.0,,,C,243202576133812
Raw,1619275263441,159788895000000,18,,-1303150692546594598,0.3623466491699219,57.173056120518595,-0.2937080084322355,10.364288531523028,38,20,0.0,16399,571281368695376,10,37.8,120.651611328125,0.03440000116825104,16,-0.0,1902.9177342976868,1.57542003E9,,,,0,,1,2.08,34.199999999999996,0.0,0.0,,,C,243202576133812
Raw,1619275263441,159788895000000,18,,-1303150692546594598,0.3623466491699219,57.173056120518595,-0.2937080084322355,10.364288531523028,38,23,0.0,16399,571281368393982,12,36.0,-443.7717590332031,0.036000002175569534,16,-0.0,1902.9177342976868,1.57542003E9,,,,0,,1,2.08,32.4,0.0,0.0,,,C,243202576133812
Raw,1619275263441,159788895000000,18,,-1303150692546594598,0.3623466491699219,57.173056120518595,-0.2937080084322355,10.364288531523028,38,29,0.0,16399,571281362736485,17,31.7,545.0955200195312,0.03530000150203705,16,-0.0,1902.9177342976868,1.57542003E9,,,,0,,1,2.08,28.099999999999998,0.0,0.0,,,C,243202576133812
Raw,1619275263441,159788895000000,18,,-1303150692546594598,0.3623466491699219,57.173056120518595,-0.2937080084322355,10.364288531523028,38,2,0.0,49359,63663366495704,11,37.9,32.918861389160156,0.03220000118017197,16,-0.0,1873.9769888276273,1.59975002E9,,,,0,,3,-0.89,33.9,3818.474365234375,11.370591163635254,,,C,243202576133812
Raw,1619275263441,159788895000000,18,,-1303150692546594598,0.3623466491699219,57.173056120518595,-0.2937080084322355,10.364288531523028,38,18,0.0,49359,63663373832875,16,33.6,392.7906494140625,0.05040000379085541,16,-0.0,1873.3183770502228,1.60031245E9,,,,0,,3,-0.89,29.6,3818.474365234375,11.370591163635254,,,C,243202576133812
Raw,1619275263441,159788895000000,18,,-1303150692546594598,0.3623466491699219,57.173056120518595,-0.2937080084322355,10.364288531523028,38,9,0.0,49359,63663374515025,40,25.4,-93.59648132324219,0.8075000047683716,16,0.0,0.0,1.60087501E9,,,,0,,3,-0.89,21.4,3818.474365234375,11.370591163635254,,,C,243202576133812
Raw,1619275263441,159788895000000,18,,-1303150692546594598,0.3623466491699219,57.173056120518595,-0.2937080084322355,10.364288531523028,38,3,0.0,49359,63663366076299,21,30.5,-550.6641235351562,0.06960000097751617,16,-0.0,1868.0653569596157,1.60481254E9,,,,0,,3,-0.89,26.5,3818.474365234375,11.370591163635254,,,C,243202576133812
Raw,1619275263441,159788895000000,18,,-1303150692546594598,0.3623466491699219,57.173056120518595,-0.2937080084322355,10.364288531523028,38,33,0.0,16399,571267358069450,11,37.7,-34.52530288696289,0.050200000405311584,16,-0.0,1920.3757538518662,1.56109798E9,,,,0,,5,2.04,33.400000000000006,-1530.9796142578125,12.549370765686035,,,I,243202576133812
Raw,1619275263441,159788895000000,18,,-1303150692546594598,0.3623466491699219,57.173056120518595,-0.2937080084322355,10.364288531523028,38,28,0.0,16399,571267361331290,17,32.7,452.5047607421875,0.033799998462200165,16,-0.0,1920.3757538518662,1.56109798E9,,,,0,,5,2.04,28.400000000000002,-1530.9796142578125,12.549370765686035,,,I,243202576133812
Raw,1619275263441,159788895000000,18,,-1303150692546594598,0.3623466491699219,57.173056120518595,-0.2937080084322355,10.364288531523028,38,27,0.0,16399,571267369966243,40,25.5,29.141992568969727,0.7999999523162842,16,0.0,0.0,1.56109798E9,,,,0,,5,2.04,21.2,-1530.9796142578125,12.549370765686035,,,I,243202576133812
Raw,1619275263441,159788895000000,18,,-1303150692546594598,0.3623466491699219,57.173056120518595,-0.2937080084322355,10.364288531523028,38,14,0.0,16399,571267356011847,27,28.8,226.1649169921875,0.640500009059906,16,0.0,0.0,1.56109798E9,,,,0,,5,2.04,24.5,-1530.9796142578125,12.549370765686035,,,I,243202576133812
Raw,1619275263441,159788895000000,18,,-1303150692546594598,0.3623466491699219,57.173056120518595,-0.2937080084322355,10.364288531523028,38,13,0.0,16399,571267310065342,13,35.9,203.1431121826172,0.039900001138448715,16,-0.0,1920.3757538518662,1.56109798E9,,,,0,,5,2.04,31.599999999999998,-1530.9796142578125,12.549370765686035,,,I,243202576133812
Raw,1619275263441,159788895000000,18,,-1303150692546594598,0.3623466491699219,57.173056120518595,-0.2937080084322355,10.364288531523028,38,2,0.0,23567,571281362819504,80,20.6,178.28614807128906,1.9884999990463257,16,0.0,0.0,1.57542003E9,,,,0,,6,2.06,16.3,-1432.7685546875,22.39711570739746,,,C,243202576133812
Raw,1619275263441,159788895000000,18,,-1303150692546594598,0.3623466491699219,57.173056120518595,-0.2937080084322355,10.364288531523028,38,4,0.0,23567,571281347028679,31,27.9,-301.52984619140625,0.6799999475479126,16,0.0,0.0,1.57542003E9,,,,0,,6,2.06,23.599999999999998,-1432.7685546875,22.39711570739746,,,C,243202576133812
Raw,1619275263441,159788895000000,18,,-1303150692546594598,0.3623466491699219,57.173056120518595,-0.2937080084322355,10.364288531523028,38,11,0.0,23567,571281361704417,21,31.1,441.884765625,0.10110000520944595,16,-0.0,1902.9177342976868,1.57542003E9,,,,0,,6,2.06,26.8,-1432.7685546875,22.39711570739746,,,C,243202576133812
Raw,1619275263441,159788895000000,18,,-1303150692546594598,0.3623466491699219,57.173056120518595,-0.2937080084322355,10.364288531523028,38,25,0.0,23567,571281353853107,35,26.7,567.4176635742188,0.7669999599456787,16,0.0,0.0,1.57542003E9,,,,0,,6,2.06,22.4,-1432.7685546875,22.39711570739746,,,C,243202576133812
Raw,1619275263441,159788895000000,18,,-1303150692546594598,0.3623466491699219,57.173056120518595,-0.2937080084322355,10.364288531523028,38,30,0.0,23567,571281360396200,40,26.2,-347.0576171875,0.7654999494552612,16,0.0,0.0,1.57542003E9,,,,0,,6,2.06,21.9,-1432.7685546875,22.39711570739746,,,C,243202576133812
Raw,1619275263441,159788895000000,18,,-1303150692546594598,0.3623466491699219,57.173056120518595,-0.2937080084322355,10.364288531523028,38,36,0.0,23567,571281363763675,61,23.0,56.098575592041016,0.9539999961853027,16,0.0,0.0,1.57542003E9,,,,0,,6,2.06,18.7,-1432.7685546875,22.39711570739746,,,C,243202576133812
Raw,1619275263441,159788895000000,18,,-1303150692546594598,0.3623466491699219,57.173056120518595,-0.2937080084322355,10.364288531523028,38,10,0.0,81935,571281362691851,7,29.2,-656.2235717773438,0.09310000389814377,16,-0.0,2548.2550006752426,1.17645005E9,,,,0,,1,0.1,24.299999999999997,-7842.46728515625,7.059558391571045,,,Q,243202576133812
Raw,1619275263441,159788895000000,18,,-1303150692546594598,0.3623466491699219,57.173056120518595,-0.2937080084322355,10.364288531523028,38,18,0.0,81935,571281373117607,2,40.3,263.9916687011719,0.058100003749132156,16,-0.0,2548.2550006752426,1.17645005E9,,,,0,,1,0.1,35.4,-7842.46728515625,7.059558391571045,,,Q,243202576133812
Raw,1619275263441,159788895000000,18,,-1303150692546594598,0.3623466491699219,57.173056120518595,-0.2937080084322355,10.364288531523028,38,23,0.0,81935,571281368401818,6,30.7,-443.8605651855469,0.08150000125169754,16,-0.0,2548.2550006752426,1.17645005E9,,,,0,,1,0.1,25.799999999999997,-7842.46728515625,7.059558391571045,,,Q,243202576133812
Raw,1619275263441,159788895000000,18,,-1303150692546594598,0.3623466491699219,57.173056120518595,-0.2937080084322355,10.364288531523028,38,2,0.0,81935,571281362825935,14,23.0,178.06109619140625,0.934499979019165,16,0.0,0.0,1.17645005E9,,,,0,,6,0.1,17.7,-7802.8896484375,123.77755737304688,,,Q,243202576133812
Raw,1619275263441,159788895000000,18,,-1303150692546594598,0.3623466491699219,57.173056120518595,-0.2937080084322355,10.364288531523028,38,4,0.0,81935,571281347035025,6,30.3,-301.39202880859375,0.07999999821186066,16,-0.0,2548.2550006752426,1.17645005E9,,,,0,,6,0.1,25.0,-7802.8896484375,123.77755737304688,,,Q,243202576133812
Raw,1619275263441,159788895000000,18,,-1303150692546594598,0.3623466491699219,57.173056120518595,-0.2937080084322355,10.364288531523028,38,11,0.0,81935,571281361710788,6,30.7,441.7955322265625,0.07099999487400055,16,-0.0,2548.2550006752426,1.17645005E9,,,,0,,6,0.1,25.4,-7802.8896484375,123.77755737304688,,,Q,243202576133812
Raw,1619275263441,159788895000000,18,,-1303150692546594598,0.3623466491699219,57.173056120518595,-0.2937080084322355,10.364288531523028,38,25,0.0,81935,571281353859481,9,26.9,567.6598510742188,0.07990000396966934,16,-0.0,2548.2550006752426,1.17645005E9,,,,0,,6,0.1,21.599999999999998,-7802.8896484375,123.77755737304688,,,Q,243202576133812
Raw,1619275263441,159788895000000,18,,-1303150692546594598,0.3623466491699219,57.173056120518595,-0.2937080084322355,10.364288531523028,38,30,0.0,81935,571281360402523,11,24.9,-347.05029296875,0.8614999651908875,16,0.0,0.0,1.17645005E9,,,,0,,6,0.1,19.599999999999998,-7802.8896484375,123.77755737304688,,,Q,243202576133812
Raw,1619275263441,159788895000000,18,,-1303150692546594598,0.3623466491699219,57.173056120518595,-0.2937080084322355,10.364288531523028,38,36,0.0,81935,571281363770107,9,26.8,56.55660629272461,0.0649000033736229,16,-0.0,2548.2550006752426,1.17645005E9,,,,0,,6,0.1,21.5,-7802.8896484375,123.77755737304688,,,Q,243202576133812
Raw,1619275263441,159788895000000,18,,-1303150692546594598,0.3623466491699219,57.173056120518595,-0.2937080084322355,10.364288531523028,38,27,0.0,16399,571267369972569,8,27.9,28.410852432250977,0.09270000457763672,16,-0.0,2548.2550006752426,1.17645005E9,,,,0,,5,0.1,23.4,-7791.14599609375,121.72727966308594,,,Q,243202576133812
Raw,1619275263441,159788895000000,18,,-1303150692546594598,0.3623466491699219,57.173056120518595,-0.2937080084322355,10.364288531523028,38,28,0.0,16399,571267361337576,4,33.7,452.5951843261719,0.07750000059604645,16,-0.0,2548.2550006752426,1.17645005E9,,,,0,,5,0.1,29.200000000000003,-7791.14599609375,121.72727966308594,,,Q,243202576133812
Raw,1619275263441,159788895000000,18,,-1303150692546594598,0.3623466491699219,57.173056120518595,-0.2937080084322355,10.364288531523028,38,32,0.0,16399,571267350279454,12,22.7,-603.9552001953125,1.0565000772476196,16,0.0,0.0,1.17645005E9,,,,0,,5,0.1,18.2,-7791.14599609375,121.72727966308594,,,Q,243202576133812
Raw,1619275263441,159788895000000,18,,-1303150692546594598,0.3623466491699219,57.173056120518595,-0.2937080084322355,10.364288531523028,38,2,0.0,16399,571281307199079,19,32.9,158.21249389648438,0.05269999802112579,16,-0.0,2548.2550006752426,1.17645005E9,,,,0,,7,0.07,27.599999999999998,,,,,C,243202576133812
Raw,1619275263441,159788895000000,18,,-1303150692546594598,0.3623466491699219,57.173056120518595,-0.2937080084322355,10.364288531523028,38,6,0.0,16399,571281312844898,21,32.2,6.294252872467041,0.47450000047683716,16,0.0,0.0,1.17645005E9,,,,0,,7,0.07,26.900000000000002,,,,,C,243202576133812
Raw,1619275263441,159788895000000,18,,-1303150692546594598,0.3623466491699219,57.173056120518595,-0.2937080084322355,10.364288531523028,38,9,0.0,16399,571281314712981,27,30.2,-160.50344848632812,0.5475000143051147,16,0.0,0.0,1.17645005E9,,,,0,,7,0.07,24.9,,,,,C,243202576133812
OrientationDeg,1619275262427,243203147864918,113,-1,-2
OrientationDeg,1619275262437,243203157847522,113,-1,-2
OrientationDeg,1619275262447,243203167830126,113,-1,-2
OrientationDeg,1619275262457,243203177812730,113,-1,-2
OrientationDeg,1619275262466,243203187795334,113,-1,-2
OrientationDeg,1619275262476,243203197777939,113,-1,-2
OrientationDeg,1619275262487,243203207760543,113,-1,-2
OrientationDeg,1619275262497,243203217743147,113,-1,-2
OrientationDeg,1619275262507,243203227725751,112,-1,-2
OrientationDeg,1619275262517,243203237708355,112,-1,-2
OrientationDeg,1619275262526,243203247690959,112,-1,-2
OrientationDeg,1619275262537,243203257673564,112,-1,-2
OrientationDeg,1619275262547,243203267656168,111,-1,-2
OrientationDeg,1619275262557,243203277638772,111,-1,-2
OrientationDeg,1619275262566,243203287621376,111,-1,-2
OrientationDeg,1619275262576,243203297603980,110,-1,-2
OrientationDeg,1619275262586,243203307586584,110,-1,-2
OrientationDeg,1619275262596,243203317569189,110,-1,-2
OrientationDeg,1619275262606,243203327551793,110,-1,-2
OrientationDeg,1619275262617,243203337534397,110,-1,-2
OrientationDeg,1619275262627,243203347517001,110,-1,-2
OrientationDeg,1619275262637,243203357499605,110,-1,-2
OrientationDeg,1619275262647,243203367482209,110,-1,-2
OrientationDeg,1619275262657,243203377464814,110,-1,-2
OrientationDeg,1619275262667,243203387447418,110,-1,-2
OrientationDeg,1619275262677,243203397430022,110,-1,-2
OrientationDeg,1619275262687,243203407412626,110,-1,-2
OrientationDeg,1619275262697,243203417395230,110,-1,-2
OrientationDeg,1619275262707,243203427377834,110,-1,-2
OrientationDeg,1619275262717,243203437360439,110,-1,-2
OrientationDeg,1619275262727,243203447343043,109,-1,-2
OrientationDeg,1619275262737,243203457325647,109,-1,-2
OrientationDeg,1619275262747,243203467308251,109,-1,-2
OrientationDeg,1619275262757,243203477290855,109,-1,-2
OrientationDeg,1619275262767,243203487273459,109,-1,-2
OrientationDeg,1619275262776,243203497256064,109,-1,-2
OrientationDeg,1619275262786,243203507238668,109,-1,-2
OrientationDeg,1619275262796,243203517221272,109,-1,-2
OrientationDeg,1619275262806,243203527203876,109,-1,-2
OrientationDeg,1619275262816,243203537186480,109,-1,-2
OrientationDeg,1619275262827,243203547169084,109,-1,-2
OrientationDeg,1619275262837,243203557151689,109,-1,-2
OrientationDeg,1619275262847,243203567134293,109,-1,-2
OrientationDeg,1619275262857,243203577116897,109,-1,-2
OrientationDeg,1619275262867,243203587099501,109,-1,-2
OrientationDeg,1619275262877,243203597082105,109,-1,-2
OrientationDeg,1619275262887,243203607064709,109,-1,-2
OrientationDeg,1619275262897,243203617047314,109,-1,-2
OrientationDeg,1619275262907,243203627029918,109,-1,-2
OrientationDeg,1619275262917,243203637012522,109,-1,-2
OrientationDeg,1619275262926,243203646995126,109,-1,-2
OrientationDeg,1619275262935,243203656977730,109,-1,-2
OrientationDeg,1619275262946,243203666960334,109,-1,-2
OrientationDeg,1619275262956,243203676942939,109,-1,-2
OrientationDeg,1619275262966,243203686925543,109,-1,-1
OrientationDeg,1619275262976,243203696908147,109,-1,-1
OrientationDeg,1619275262986,243203706890751,109,0,-1
OrientationDeg,1619275262995,243203716873355,109,0,-1
OrientationDeg,1619275263006,243203726855959,109,0,-1
OrientationDeg,1619275263016,243203736838564,109,0,-1
OrientationDeg,1619275263026,243203746821168,109,0,-1
OrientationDeg,1619275263036,243203756803772,109,0,-1
OrientationDeg,1619275263046,243203766786376,109,0,-1
OrientationDeg,1619275263056,243203776768980,109,0,-1
OrientationDeg,1619275263066,243203786751584,109,0,-1
OrientationDeg,1619275263076,243203796734189,109,0,-1
OrientationDeg,1619275263086,243203806716793,109,0,-1
OrientationDeg,1619275263095,243203816699397,109,0,-1
OrientationDeg,1619275263106,243203826682001,109,0,-1
OrientationDeg,1619275263115,243203836664605,109,0,-1
OrientationDeg,1619275263126,243203846647209,109,0,-1
OrientationDeg,1619275263136,243203856629814,109,0,-1
OrientationDeg,1619275263146,243203866612418,109,0,-1
OrientationDeg,1619275263156,243203876594970,109,0,-1
OrientationDeg,1619275263166,243203886577522,109,0,-1
OrientationDeg,1619275263176,243203896560074,109,0,-1
OrientationDeg,1619275263186,243203906542626,109,0,-1
OrientationDeg,1619275263196,243203916525178,109,0,-1
OrientationDeg,1619275263206,243203926507730,109,0,-1
OrientationDeg,1619275263216,243203936490282,109,0,-1
OrientationDeg,1619275263226,243203946472834,109,0,-1
OrientationDeg,1619275263236,243203956455386,109,0,-1
OrientationDeg,1619275263246,243203966437939,109,0,-1
OrientationDeg,1619275263256,243203976420491,109,0,-1
OrientationDeg,1619275263266,243203986403043,109,0,-1
OrientationDeg,1619275263276,243203996385595,109,0,-1
OrientationDeg,1619275263286,243204006368147,109,0,-1
OrientationDeg,1619275263296,243204016350699,109,0,-1
OrientationDeg,1619275263306,243204026333251,109,0,-1
OrientationDeg,1619275263316,243204036315803,109,0,-1
OrientationDeg,1619275263326,243204046298355,109,0,-1
OrientationDeg,1619275263336,243204056280907,109,0,-1
OrientationDeg,1619275263346,243204066263459,109,0,-1
OrientationDeg,1619275263356,243204076246011,109,0,-1
OrientationDeg,1619275263366,243204086228564,109,0,-1
OrientationDeg,1619275263376,243204096211116,109,0,-1
OrientationDeg,1619275263386,243204106193668,109,0,-1
OrientationDeg,1619275263396,243204116176220,109,0,-1
OrientationDeg,1619275263406,243204126158772,109,0,-1
OrientationDeg,1619275263416,243204136141324,109,0,-1
Raw,1619275264441,159789895000000,18,,-1303150692546594608,0.7361965179443359,44.17464151629247,-2.0791368696457506,10.547775250759683,38,10,0.0,16399,571282362686193,21,30.0,-656.4928588867188,0.06360000371932983,16,-0.0,1902.9177342976868,1.57542003E9,,,,0,,1,2.28,26.4,0.0,0.0,,,C,243203574434853
Raw,1619275264441,159789895000000,18,,-1303150692546594608,0.7361965179443359,44.17464151629247,-2.0791368696457506,10.547775250759683,38,18,0.0,16399,571282373108910,12,36.1,263.7209777832031,0.04350000247359276,16,-0.0,1902.9177342976868,1.57542003E9,,,,0,,1,2.28,32.5,0.0,0.0,,,C,243203574434853
Raw,1619275264441,159789895000000,18,,-1303150692546594608,0.7361965179443359,44.17464151629247,-2.0791368696457506,10.547775250759683,38,20,0.0,16399,571282368694988,8,39.8,120.34423065185547,0.03320000320672989,16,-0.0,1902.9177342976868,1.57542003E9,,,,0,,1,2.28,36.199999999999996,0.0,0.0,,,C,243203574434853
Raw,1619275264441,159789895000000,18,,-1303150692546594608,0.7361965179443359,44.17464151629247,-2.0791368696457506,10.547775250759683,38,23,0.0,16399,571282368395465,13,35.4,-444.0977478027344,0.036900002509355545,16,-0.0,1902.9177342976868,1.57542003E9,,,,0,,1,2.28,31.799999999999997,0.0,0.0,,,C,243203574434853
Raw,1619275264441,159789895000000,18,,-1303150692546594608,0.7361965179443359,44.17464151629247,-2.0791368696457506,10.547775250759683,38,29,0.0,16399,571282362734686,16,32.8,544.8125610351562,0.033900000154972076,16,-0.0,1902.9177342976868,1.57542003E9,,,,0,,1,2.28,29.199999999999996,0.0,0.0,,,C,243203574434853
Raw,1619275264441,159789895000000,18,,-1303150692546594608,0.7361965179443359,44.17464151629247,-2.0791368696457506,10.547775250759683,38,2,0.0,49359,63664366495571,14,34.7,32.70122528076172,0.03500000014901161,16,-0.0,1873.9769888276273,1.59975002E9,,,,0,,3,-0.74,30.700000000000003,3818.12158203125,11.217219352722168,,,C,243203574434853
Raw,1619275264441,159789895000000,18,,-1303150692546594608,0.7361965179443359,44.17464151629247,-2.0791368696457506,10.547775250759683,38,18,0.0,49359,63664373831596,14,34.6,392.40423583984375,0.045500002801418304,16,-0.0,1873.3183770502228,1.60031245E9,,,,0,,3,-0.74,30.6,3818.12158203125,11.217219352722168,,,C,243203574434853
Raw,1619275264441,159789895000000,18,,-1303150692546594608,0.7361965179443359,44.17464151629247,-2.0791368696457506,10.547775250759683,38,9,0.0,49359,63664374515344,40,25.4,-93.98974609375,0.8075000047683716,16,0.0,0.0,1.60087501E9,,,,0,,3,-0.74,21.4,3818.12158203125,11.217219352722168,,,C,243203574434853
Raw,1619275264441,159789895000000,18,,-1303150692546594608,0.7361965179443359,44.17464151629247,-2.0791368696457506,10.547775250759683,38,3,0.0,49359,63664366078124,21,30.4,-551.0647583007812,0.06960000097751617,16,-0.0,1868.0653569596157,1.60481254E9,,,,0,,3,-0.74,26.4,3818.12158203125,11.217219352722168,,,C,243203574434853
Raw,1619275264441,159789895000000,18,,-1303150692546594608,0.7361965179443359,44.17464151629247,-2.0791368696457506,10.547775250759683,38,36,0.0,16399,571268360669035,92,19.9,-182.80239868164062,2.756500005722046,16,0.0,0.0,1.56109798E9,,,,0,,5,2.2,15.599999999999998,-1530.9727783203125,12.576205253601074,,,I,243203574434853
Raw,1619275264441,159789895000000,18,,-1303150692546594608,0.7361965179443359,44.17464151629247,-2.0791368696457506,10.547775250759683,38,33,0.0,16399,571268358069558,11,38.0,-34.82459259033203,0.06520000100135803,16,-0.0,1920.3757538518662,1.56109798E9,,,,0,,5,2.2,33.7,-1530.9727783203125,12.576205253601074,,,I,243203574434853
Raw,1619275264441,159789895000000,18,,-1303150692546594608,0.7361965179443359,44.17464151629247,-2.0791368696457506,10.547775250759683,38,28,0.0,16399,571268361329779,31,27.9,452.099365234375,0.6679999828338623,16,0.0,0.0,1.56109798E9,,,,0,,5,2.2,23.599999999999998,-1530.9727783203125,12.576205253601074,,,I,243203574434853
Raw,1619275264441,159789895000000,18,,-1303150692546594608,0.7361965179443359,44.17464151629247,-2.0791368696457506,10.547775250759683,38,27,0.0,16399,571268369966157,61,22.8,26.85672378540039,1.0099999904632568,16,0.0,0.0,1.56109798E9,,,,0,,5,2.2,18.5,-1530.9727783203125,12.576205253601074,,,I,243203574434853
Raw,1619275264441,159789895000000,18,,-1303150692546594608,0.7361965179443359,44.17464151629247,-2.0791368696457506,10.547775250759683,38,13,0.0,16399,571268310064663,17,32.4,202.75991821289062,0.04729999974370003,16,-0.0,1920.3757538518662,1.56109798E9,,,,0,,5,2.2,28.099999999999998,-1530.9727783203125,12.576205253601074,,,I,243203574434853
Raw,1619275264441,159789895000000,18,,-1303150692546594608,0.7361965179443359,44.17464151629247,-2.0791368696457506,10.547775250759683,38,5,0.0,16399,571268310272417,35,27.2,-2.5925331115722656,5.111100196838379,16,0.0,0.0,1.56109798E9,,,,0,,5,2.2,22.9,-1530.9727783203125,12.576205253601074,,,I,243203574434853
Raw,1619275264441,159789895000000,18,,-1303150692546594608,0.7361965179443359,44.17464151629247,-2.0791368696457506,10.547775250759683,38,2,0.0,23567,571282362818934,35,26.3,178.1148681640625,0.7684999704360962,16,0.0,0.0,1.57542003E9,,,,0,,6,2.26,22.0,-1432.7584228515625,22.40573501586914,,,C,243203574434853
Raw,1619275264441,159789895000000,18,,-1303150692546594608,0.7361965179443359,44.17464151629247,-2.0791368696457506,10.547775250759683,38,4,0.0,23567,571282347029686,21,31.1,-301.6842346191406,0.07410000264644623,16,-0.0,1902.9177342976868,1.57542003E9,,,,0,,6,2.26,26.8,-1432.7584228515625,22.40573501586914,,,C,243203574434853
Raw,1619275264441,159789895000000,18,,-1303150692546594608,0.7361965179443359,44.17464151629247,-2.0791368696457506,10.547775250759683,38,11,0.0,23567,571282361702928,21,30.9,441.4692687988281,0.10110000520944595,16,-0.0,1902.9177342976868,1.57542003E9,,,,0,,6,2.26,26.599999999999998,-1432.7584228515625,22.40573501586914,,,C,243203574434853
Raw,1619275264441,159789895000000,18,,-1303150692546594608,0.7361965179443359,44.17464151629247,-2.0791368696457506,10.547775250759683,38,25,0.0,23567,571282353851218,70,22.0,567.341552734375,1.037000060081482,16,0.0,0.0,1.57542003E9,,,,0,,6,2.26,17.7,-1432.7584228515625,22.40573501586914,,,C,243203574434853
Raw,1619275264441,159789895000000,18,,-1303150692546594608,0.7361965179443359,44.17464151629247,-2.0791368696457506,10.547775250759683,38,30,0.0,23567,571282360397334,31,27.8,-347.29547119140625,0.7055000066757202,16,0.0,0.0,1.57542003E9,,,,0,,6,2.26,23.5,-1432.7584228515625,22.40573501586914,,,C,243203574434853
Raw,1619275264441,159789895000000,18,,-1303150692546594608,0.7361965179443359,44.17464151629247,-2.0791368696457506,10.547775250759683,38,36,0.0,23567,571282363763546,61,23.0,56.051002502441406,0.9539999961853027,16,0.0,0.0,1.57542003E9,,,,0,,6,2.26,18.7,-1432.7584228515625,22.40573501586914,,,C,243203574434853
Raw,1619275264441,159789895000000,18,,-1303150692546594608,0.7361965179443359,44.17464151629247,-2.0791368696457506,10.547775250759683,38,10,0.0,81935,571282362694025,8,27.2,-656.4298095703125,0.05470000207424164,16,-0.0,2548.2550006752426,1.17645005E9,,,,0,,1,0.21,22.299999999999997,-7842.47265625,7.058983325958252,,,Q,243203574434853
Raw,1619275264441,159789895000000,18,,-1303150692546594608,0.7361965179443359,44.17464151629247,-2.0791368696457506,10.547775250759683,38,18,0.0,81935,571282373116731,2,43.5,263.7398681640625,0.0560000017285347,16,-0.0,2548.2550006752426,1.17645005E9,,,,0,,1,0.21,38.6,-7842.47265625,7.058983325958252,,,Q,243203574434853
Raw,1619275264441,159789895000000,18,,-1303150692546594608,0.7361965179443359,44.17464151629247,-2.0791368696457506,10.547775250759683,38,23,0.0,81935,571282368403287,3,36.8,-444.09991455078125,0.05480000376701355,16,-0.0,2548.2550006752426,1.17645005E9,,,,0,,1,0.21,31.9,-7842.47265625,7.058983325958252,,,Q,243203574434853
Raw,1619275264441,159789895000000,18,,-1303150692546594608,0.7361965179443359,44.17464151629247,-2.0791368696457506,10.547775250759683,38,26,0.0,81935,571282373083100,12,23.7,163.33203125,0.9509999752044678,16,0.0,0.0,1.17645005E9,,,,0,,1,0.21,18.799999999999997,-7842.47265625,7.058983325958252,,,Q,243203574434853
Raw,1619275264441,159789895000000,18,,-1303150692546594608,0.7361965179443359,44.17464151629247,-2.0791368696457506,10.547775250759683,38,2,0.0,81935,571282362825337,10,25.7,178.07382202148438,0.8044999837875366,16,0.0,0.0,1.17645005E9,,,,0,,6,0.21,20.4,-7802.8623046875,99.26780700683594,,,Q,243203574434853
Raw,1619275264441,159789895000000,18,,-1303150692546594608,0.7361965179443359,44.17464151629247,-2.0791368696457506,10.547775250759683,38,4,0.0,81935,571282347036040,9,27.0,-301.61572265625,0.07090000063180923,16,-0.0,2548.2550006752426,1.17645005E9,,,,0,,6,0.21,21.7,-7802.8623046875,99.26780700683594,,,Q,243203574434853
Raw,1619275264441,159789895000000,18,,-1303150692546594608,0.7361965179443359,44.17464151629247,-2.0791368696457506,10.547775250759683,38,11,0.0,81935,571282361709310,4,34.7,441.49920654296875,0.04749999940395355,16,-0.0,2548.2550006752426,1.17645005E9,,,,0,,6,0.21,29.400000000000002,-7802.8623046875,99.26780700683594,,,Q,243203574434853
Raw,1619275264441,159789895000000,18,,-1303150692546594608,0.7361965179443359,44.17464151629247,-2.0791368696457506,10.547775250759683,38,25,0.0,81935,571282353857578,5,34.2,567.24462890625,0.06760000437498093,16,-0.0,2548.2550006752426,1.17645005E9,,,,0,,6,0.21,28.900000000000002,-7802.8623046875,99.26780700683594,,,Q,243203574434853
Raw,1619275264441,159789895000000,18,,-1303150692546594608,0.7361965179443359,44.17464151629247,-2.0791368696457506,10.547775250759683,38,30,0.0,81935,571282360403679,8,27.3,-347.2940673828125,0.05169999971985817,16,-0.0,2548.2550006752426,1.17645005E9,,,,0,,6,0.21,22.0,-7802.8623046875,99.26780700683594,,,Q,243203574434853
Raw,1619275264441,159789895000000,18,,-1303150692546594608,0.7361965179443359,44.17464151629247,-2.0791368696457506,10.547775250759683,38,36,0.0,81935,571282363769917,6,31.9,56.206790924072266,0.06159999966621399,16,-0.0,2548.2550006752426,1.17645005E9,,,,0,,6,0.21,26.599999999999998,-7802.8623046875,99.26780700683594,,,Q,243203574434853
Raw,1619275264441,159789895000000,18,,-1303150692546594608,0.7361965179443359,44.17464151629247,-2.0791368696457506,10.547775250759683,38,27,0.0,16399,571268369972476,5,31.6,28.03970718383789,0.09450000524520874,16,-0.0,2548.2550006752426,1.17645005E9,,,,0,,5,0.21,27.1,-7791.154296875,96.26520538330078,,,Q,243203574434853
Raw,1619275264441,159789895000000,18,,-1303150692546594608,0.7361965179443359,44.17464151629247,-2.0791368696457506,10.547775250759683,38,28,0.0,16399,571268361336069,3,36.4,452.2342529296875,0.07429999858140945,16,-0.0,2548.2550006752426,1.17645005E9,,,,0,,5,0.21,31.9,-7791.154296875,96.26520538330078,,,Q,243203574434853
Raw,1619275264441,159789895000000,18,,-1303150692546594608,0.7361965179443359,44.17464151629247,-2.0791368696457506,10.547775250759683,38,32,0.0,16399,571268350281452,11,24.1,-604.0061645507812,0.906499981880188,16,0.0,0.0,1.17645005E9,,,,0,,5,0.21,19.6,-7791.154296875,96.26520538330078,,,Q,243203574434853
Raw,1619275264441,159789895000000,18,,-1303150692546594608,0.7361965179443359,44.17464151629247,-2.0791368696457506,10.547775250759683,38,2,0.0,16399,571282307198527,35,28.1,157.95516967773438,0.6270000338554382,16,0.0,0.0,1.17645005E9,,,,0,,7,0.07,22.8,,,,,C,243203574434853
Raw,1619275264441,159789895000000,18,,-1303150692546594608,0.7361965179443359,44.17464151629247,-2.0791368696457506,10.547775250759683,38,6,0.0,16399,571282312844895,24,30.7,5.512937068939209,0.11050000041723251,16,-0.0,2548.2550006752426,1.17645005E9,,,,0,,7,0.07,25.4,,,,,C,243203574434853
Raw,1619275264441,159789895000000,18,,-1303150692546594608,0.7361965179443359,44.17464151629247,-2.0791368696457506,10.547775250759683,38,9,0.0,16399,571282314713495,24,31.0,-160.87062072753906,0.11349999904632568,16,-0.0,2548.2550006752426,1.17645005E9,,,,0,,7,0.07,25.7,,,,,C,243203574434853
OrientationDeg,1619275263426,243204146123928,109,0,-1
OrientationDeg,1619275263436,243204156106532,109,0,-1
OrientationDeg,1619275263446,243204166089136,109,0,-1
OrientationDeg,1619275263456,243204176071741,109,0,-1
OrientationDeg,1619275263465,243204186054345,109,0,-1
OrientationDeg,1619275263475,243204196036949,109,0,-1
OrientationDeg,1619275263486,243204206019553,109,0,-1
OrientationDeg,1619275263496,243204216002157,109,0,-1
OrientationDeg,1619275263505,243204225984761,109,0,-1
OrientationDeg,1619275263514,243204235967366,109,0,-1
OrientationDeg,1619275263524,243204245949970,109,0,-1
OrientationDeg,1619275263534,243204255932574,109,0,-1
OrientationDeg,1619275263544,243204265915178,109,0,-1
OrientationDeg,1619275263554,243204275897782,109,0,-1
OrientationDeg,1619275263565,243204285880386,109,0,-1
OrientationDeg,1619275263575,243204295862991,109,0,-1
OrientationDeg,1619275263585,243204305845595,109,0,-1
OrientationDeg,1619275263595,243204315828199,109,0,-1
OrientationDeg,1619275263605,243204325810803,109,0,-1
OrientationDeg,1619275263615,243204335793407,109,0,-1
OrientationDeg,1619275263625,243204345776011,109,0,-1
OrientationDeg,1619275263635,243204355758616,109,0,-1
OrientationDeg,1619275263645,243204365741220,109,0,-1
OrientationDeg,1619275263655,243204375723824,109,0,-1
OrientationDeg,1619275263665,243204385706428,109,0,-1
OrientationDeg,1619275263675,243204395689032,109,0,-1
OrientationDeg,1619275263685,243204405671636,109,0,-1
OrientationDeg,1619275263695,243204415654241,109,0,-1
OrientationDeg,1619275263705,243204425636845,109,0,-1
OrientationDeg,1619275263714,243204435619449,109,0,-1
OrientationDeg,1619275263724,243204445602053,109,0,-1
OrientationDeg,1619275263734,243204455584657,109,0,-1
OrientationDeg,1619275263744,243204465567261,109,0,-1
OrientationDeg,1619275263754,243204475549866,109,0,-1
OrientationDeg,1619275263765,243204485532470,109,0,-1
OrientationDeg,1619275263775,243204495515074,109,0,-1
OrientationDeg,1619275263785,243204505497678,109,0,-1
OrientationDeg,1619275263795,243204515480282,109,0,-1
OrientationDeg,1619275263805,243204525462886,109,0,-1
OrientationDeg,1619275263815,243204535445491,109,0,-1
OrientationDeg,1619275263825,243204545428095,109,0,-1
OrientationDeg,1619275263835,243204555410699,109,0,-1
OrientationDeg,1619275263845,243204565393303,109,0,-1
OrientationDeg,1619275263855,243204575375907,109,0,-1
OrientationDeg,1619275263865,243204585358511,109,0,-1
OrientationDeg,1619275263875,243204595341116,109,0,-1
OrientationDeg,1619275263885,243204605323720,109,0,-1
OrientationDeg,1619275263895,243204615306324,109,0,-1
OrientationDeg,1619275263905,243204625288928,109,0,-1
OrientationDeg,1619275263914,243204635271532,109,0,-1
OrientationDeg,1619275263925,243204645254136,109,0,-1
OrientationDeg,1619275263935,243204655236741,109,0,-1
OrientationDeg,1619275263944,243204665219345,109,0,-1
OrientationDeg,1619275263955,243204675201949,109,0,-1
OrientationDeg,1619275263965,243204685184553,109,0,-1
OrientationDeg,1619275263975,243204695167157,109,0,-1
OrientationDeg,1619275263985,243204705149761,109,0,-1
OrientationDeg,1619275263995,243204715132366,109,0,-1
OrientationDeg,1619275264004,243204725114970,109,0,-1
OrientationDeg,1619275264015,243204735097574,109,0,-1
OrientationDeg,1619275264025,243204745080178,109,0,-1
OrientationDeg,1619275264035,243204755062782,109,0,-1
OrientationDeg,1619275264045,243204765045386,109,0,-1
OrientationDeg,1619275264055,243204775027991,109,0,-1
OrientationDeg,1619275264064,243204785010595,109,0,-1
OrientationDeg,1619275264074,243204794993199,109,0,-1
OrientationDeg,1619275264084,243204804975803,109,0,-1
OrientationDeg,1619275264094,243204814958407,109,0,-1
OrientationDeg,1619275264103,243204824941011,109,0,-1
OrientationDeg,1619275264114,243204834923616,109,0,-1
OrientationDeg,1619275264123,243204844906220,109,0,-1
OrientationDeg,1619275264134,243204854888824,109,0,-1
OrientationDeg,1619275264144,243204864871428,109,0,-1
OrientationDeg,1619275264154,243204874854032,109,0,-1
OrientationDeg,1619275264164,243204884836636,109,0,-1
OrientationDeg,1619275264173,243204894819241,109,0,-1
OrientationDeg,1619275264184,243204904801845,109,0,-1
OrientationDeg,1619275264193,243204914784449,109,0,-1
OrientationDeg,1619275264204,243204924767053,109,0,-1
OrientationDeg,1619275264214,243204934749657,109,0,-1
OrientationDeg,1619275264224,243204944732261,109,0,-1
OrientationDeg,1619275264234,243204954714866,109,0,-1
OrientationDeg,1619275264244,243204964697470,109,0,-1
OrientationDeg,1619275264254,243204974680074,109,0,-1
OrientationDeg,1619275264264,243204984662678,109,0,-1
OrientationDeg,1619275264274,243204994645282,109,0,-1
OrientationDeg,1619275264284,243205004627886,109,0,-1
OrientationDeg,1619275264293,243205014610491,109,0,-1
OrientationDeg,1619275264304,243205024593095,109,0,-1
OrientationDeg,1619275264314,243205034575699,109,0,-1
OrientationDeg,1619275264324,243205044558303,109,0,-1
OrientationDeg,1619275264333,243205054540907,109,0,-1
OrientationDeg,1619275264343,243205064523511,109,0,-1
OrientationDeg,1619275264354,243205074506116,109,0,-1
OrientationDeg,1619275264363,243205084488720,109,0,-1
OrientationDeg,1619275264374,243205094471324,109,0,-1
OrientationDeg,1619275264384,243205104453928,109,0,-1
OrientationDeg,1619275264393,243205114436532,109,0,-1
OrientationDeg,1619275264404,243205124419136,109,0,-1
OrientationDeg,1619275264414,243205134401741,109,0,-1
Raw,1619275265441,159790895000000,18,,-1303150692546594614,0.09027862548828125,50.059345085173845,-3.391251615683594,14.587365959529677,38,10,0.0,16399,571283362688410,17,31.8,-656.9204711914062,0.03530000150203705,16,-0.0,1902.9177342976868,1.57542003E9,,,,0,,1,2.25,28.2,0.0,0.0,,,C,243204577900685
Raw,1619275265441,159790895000000,18,,-1303150692546594614,0.09027862548828125,50.059345085173845,-3.391251615683594,14.587365959529677,38,18,0.0,16399,571283373108042,17,32.2,263.3848571777344,0.05180000141263008,16,-0.0,1902.9177342976868,1.57542003E9,,,,0,,1,2.25,28.6,0.0,0.0,,,C,243204577900685
Raw,1619275265441,159790895000000,18,,-1303150692546594614,0.09027862548828125,50.059345085173845,-3.391251615683594,14.587365959529677,38,20,0.0,16399,571283368694581,9,39.0,120.03292083740234,0.03380000218749046,16,-0.0,1902.9177342976868,1.57542003E9,,,,0,,1,2.25,35.4,0.0,0.0,,,C,243204577900685
Raw,1619275265441,159790895000000,18,,-1303150692546594614,0.09027862548828125,50.059345085173845,-3.391251615683594,14.587365959529677,38,23,0.0,16399,571283368396954,14,34.0,-444.4207458496094,0.03800000250339508,16,-0.0,1902.9177342976868,1.57542003E9,,,,0,,1,2.25,30.4,0.0,0.0,,,C,243204577900685
Raw,1619275265441,159790895000000,18,,-1303150692546594614,0.09027862548828125,50.059345085173845,-3.391251615683594,14.587365959529677,38,29,0.0,16399,571283362732875,17,31.7,544.32666015625,0.03530000150203705,16,-0.0,1902.9177342976868,1.57542003E9,,,,0,,1,2.25,28.099999999999998,0.0,0.0,,,C,243204577900685
Raw,1619275265441,159790895000000,18,,-1303150692546594614,0.09027862548828125,50.059345085173845,-3.391251615683594,14.587365959529677,38,10,0.0,49359,63665365223460,181,14.6,-678.05224609375,10.124000549316406,16,0.0,0.0,1.59806246E9,,,,0,,3,-0.76,10.6,3817.640380859375,11.07449722290039,,,C,243204577900685
Raw,1619275265441,159790895000000,18,,-1303150692546594614,0.09027862548828125,50.059345085173845,-3.391251615683594,14.587365959529677,38,2,0.0,49359,63665366495462,12,36.1,32.41580581665039,0.032999999821186066,16,-0.0,1873.9769888276273,1.59975002E9,,,,0,,3,-0.76,32.1,3817.640380859375,11.07449722290039,,,C,243204577900685
Raw,1619275265441,159790895000000,18,,-1303150692546594614,0.09027862548828125,50.059345085173845,-3.391251615683594,14.587365959529677,38,18,0.0,49359,63665373830164,21,30.9,392.29132080078125,0.08009999990463257,16,-0.0,1873.3183770502228,1.60031245E9,,,,0,,3,-0.76,26.9,3817.640380859375,11.07449722290039,,,C,243204577900685
Raw,1619275265441,159790895000000,18,,-1303150692546594614,0.09027862548828125,50.059345085173845,-3.391251615683594,14.587365959529677,38,9,0.0,49359,63665374515848,46,24.0,-94.80435943603516,0.8675000071525574,16,0.0,0.0,1.60087501E9,,,,0,,3,-0.76,20.0,3817.640380859375,11.07449722290039,,,C,243204577900685
