# 
# Header Description:
# 
# Version: v3.0.0.1 Platform: 11 Manufacturer: Xiaomi Model: M2007J17G
# 
# Raw,utcTimeMillis,TimeNanos,LeapSecond,TimeUncertaintyNanos,FullBiasNanos,BiasNanos,BiasUncertaintyNanos,DriftNanosPerSecond,DriftUncertaintyNanosPerSecond,HardwareClockDiscontinuityCount,Svid,TimeOffsetNanos,State,ReceivedSvTimeNanos,ReceivedSvTimeUncertaintyNanos,Cn0DbHz,PseudorangeRateMetersPerSecond,PseudorangeRateUncertaintyMetersPerSecond,AccumulatedDeltaRangeState,AccumulatedDeltaRangeMeters,AccumulatedDeltaRangeUncertaintyMeters,CarrierFrequencyHz,CarrierCycles,CarrierPhase,CarrierPhaseUncertainty,MultipathIndicator,SnrInDb,ConstellationType,AgcDb,BasebandCn0DbHz,FullInterSignalBiasNanos,FullInterSignalBiasUncertaintyNanos,SatelliteInterSignalBiasNanos,SatelliteInterSignalBiasUncertaintyNanos,CodeType,ChipsetElapsedRealtimeNanos
# 
# UncalAccel,utcTimeMillis,elapsedRealtimeNanos,UncalAccelXMps2,UncalAccelYMps2,UncalAccelZMps2,BiasXMps2,BiasYMps2,BiasZMps2
# 
# UncalGyro,utcTimeMillis,elapsedRealtimeNanos,UncalGyroXRadPerSec,UncalGyroYRadPerSec,UncalGyroZRadPerSec,DriftXRadPerSec,DriftYRadPerSec,DriftZRadPerSec
# 
# UncalMag,utcTimeMillis,elapsedRealtimeNanos,UncalMagXMicroT,UncalMagYMicroT,UncalMagZMicroT,BiasXMicroT,BiasYMicroT,BiasZMicroT
# 
# OrientationDeg,utcTimeMillis,elapsedRealtimeNanos,yawDeg,rollDeg,pitchDeg
# 
# Fix,Provider,LatitudeDegrees,LongitudeDegrees,AltitudeMeters,SpeedMps,AccuracyMeters,BearingDegrees,UnixTimeMillis,SpeedAccuracyMps,BearingAccuracyDegrees,elapsedRealtimeNanos
# 
# Nav,Svid,Type,Status,MessageId,Sub-messageId,Data(Bytes)
# 
# Status,UnixTimeMillis,SignalCount,SignalIndex,ConstellationType,Svid,CarrierFrequencyHz,Cn0DbHz,AzimuthDegrees,ElevationDegrees,UsedInFix,HasAlmanacData,HasEphemerisData,BasebandCn0DbHz
# 
OrientationDeg,1619345910745,313851465240566,237,-6,-34
OrientationDeg,1619345910755,313851475222493,237,-6,-34
OrientationDeg,1619345910765,313851485204420,237,-6,-34
OrientationDeg,1619345910774,313851495186347,238,-6,-33
OrientationDeg,1619345910785,313851505168274,238,-6,-33
OrientationDeg,1619345910795,313851515150201,238,-6,-33
OrientationDeg,1619345910805,313851525132128,239,-6,-33
OrientationDeg,1619345910815,313851535114056,239,-5,-32
OrientationDeg,1619345910825,313851545095983,239,-5,-32
OrientationDeg,1619345910835,313851555077910,239,-5,-32
OrientationDeg,1619345910844,313851565059837,240,-5,-32
OrientationDeg,1619345910855,313851575041764,240,-5,-33
OrientationDeg,1619345910865,313851585023691,240,-6,-33
OrientationDeg,1619345910875,313851595005618,240,-6,-33
OrientationDeg,1619345910884,313851604987545,240,-6,-33
OrientationDeg,1619345910894,313851614969472,241,-6,-34
OrientationDeg,1619345910904,313851624951399,241,-6,-34
OrientationDeg,1619345910914,313851634933326,241,-6,-34
OrientationDeg,1619345910924,313851644915253,241,-6,-34
OrientationDeg,1619345910934,313851654897181,241,-6,-34
OrientationDeg,1619345910943,313851664879108,242,-6,-34
OrientationDeg,1619345910954,313851674861035,242,-6,-34
OrientationDeg,1619345910964,313851684842962,242,-6,-35
OrientationDeg,1619345910974,313851694824941,243,-6,-35
OrientationDeg,1619345910984,313851704806920,243,-6,-35
OrientationDeg,1619345910994,313851714788899,243,-6,-35
OrientationDeg,1619345911004,313851724770878,243,-5,-35
OrientationDeg,1619345911014,313851734752858,243,-5,-35
OrientationDeg,1619345911023,313851744734837,244,-5,-35
OrientationDeg,1619345911034,313851754716816,244,-5,-35
OrientationDeg,1619345911044,313851764698795,244,-5,-35
OrientationDeg,1619345911053,313851774680774,244,-4,-34
OrientationDeg,1619345911064,313851784662753,244,-4,-34
OrientationDeg,1619345911074,313851794644733,244,-4,-34
OrientationDeg,1619345911083,313851804626712,244,-4,-34
OrientationDeg,1619345911094,313851814608691,244,-4,-33
OrientationDeg,1619345911103,313851824590670,244,-4,-33
OrientationDeg,1619345911114,313851834572649,244,-4,-33
OrientationDeg,1619345911124,313851844554628,244,-3,-33
OrientationDeg,1619345911134,313851854536608,244,-3,-33
OrientationDeg,1619345911143,313851864518587,243,-2,-33
Fix,FLP,45.6394624,12.1625651,68.222715,1.230694,6.017000,240.435394,1619345911166,0.0,0.0,313851887000000
OrientationDeg,1619345911154,313851874500566,243,-2,-32
OrientationDeg,1619345911163,313851884482545,242,-2,-32
OrientationDeg,1619345911174,313851894464524,242,-2,-31
OrientationDeg,1619345911184,313851904446503,241,-2,-30
OrientationDeg,1619345911194,313851914428483,240,-1,-30
OrientationDeg,1619345911204,313851924410462,240,-1,-29
OrientationDeg,1619345911213,313851934392441,240,-1,-29
OrientationDeg,1619345911224,313851944374420,240,-1,-28
OrientationDeg,1619345911234,313851954356399,240,-1,-28
Fix,GPS,45.6394585,12.1625742,68.389038,1.280000,3.790092,250.399994,1619345913000,0.840595,33.620014,313851979878212
OrientationDeg,1619345911244,313851964338378,240,-1,-28
OrientationDeg,1619345911254,313851974320358,240,-2,-28
OrientationDeg,1619345911264,313851984302285,241,-2,-28
OrientationDeg,1619345911274,313851994284212,241,-2,-28
OrientationDeg,1619345911284,313852004266139,241,-2,-28
Raw,1619345912440,214237039000000,18,,-1303166893401161864,-0.4595146179199219,28.050781111232936,-2.563994083470523,14.912393214232969,53,2,0.0,16399,37130364317827,14,34.0,83.04920959472656,0.03200000151991844,16,-0.0,1902.9177342976868,1.57542003E9,,,,0,,1,-2.11,30.4,0.0,0.0,,,C,313851404442744
Raw,1619345912440,214237039000000,18,,-1303166893401161864,-0.4595146179199219,28.050781111232936,-2.563994083470523,14.912393214232969,53,6,0.0,16399,37130360514146,35,25.9,386.4864501953125,0.7864999771118164,16,0.0,0.0,1.57542003E9,,,,0,,1,-2.11,22.299999999999997,0.0,0.0,,,C,313851404442744
Raw,1619345912440,214237039000000,18,,-1303166893401161864,-0.4595146179199219,28.050781111232936,-2.563994083470523,14.912393214232969,53,12,0.0,16399,37130370159907,14,34.4,348.7092590332031,0.04100000113248825,16,-0.0,1902.9177342976868,1.57542003E9,,,,0,,1,-2.11,30.799999999999997,0.0,0.0,,,C,313851404442744
Raw,1619345912440,214237039000000,18,,-1303166893401161864,-0.4595146179199219,28.050781111232936,-2.563994083470523,14.912393214232969,53,24,0.0,16399,37130360724096,17,31.6,687.7466430664062,0.03229999914765358,16,-0.0,1902.9177342976868,1.57542003E9,,,,0,,1,-2.11,28.0,0.0,0.0,,,C,313851404442744
Raw,1619345912440,214237039000000,18,,-1303166893401161864,-0.4595146179199219,28.050781111232936,-2.563994083470523,14.912393214232969,53,25,0.0,16399,37130373020312,13,35.5,-104.33929443359375,0.04440000280737877,16,-0.0,1902.9177342976868,1.57542003E9,,,,0,,1,-2.11,31.9,0.0,0.0,,,C,313851404442744
Raw,1619345912440,214237039000000,18,,-1303166893401161864,-0.4595146179199219,28.050781111232936,-2.563994083470523,14.912393214232969,53,29,0.0,16399,37130367926248,17,32.5,-500.03839111328125,0.04280000180006027,16,-0.0,1902.9177342976868,1.57542003E9,,,,0,,1,-2.11,28.9,0.0,0.0,,,C,313851404442744
Raw,1619345912440,214237039000000,18,,-1303166893401161864,-0.4595146179199219,28.050781111232936,-2.563994083470523,14.912393214232969,53,31,0.0,16399,37130361742352,46,24.2,-602.8883666992188,0.8479999899864197,16,0.0,0.0,1.57542003E9,,,,0,,1,-2.11,20.599999999999998,0.0,0.0,,,C,313851404442744
Raw,1619345912440,214237039000000,18,,-1303166893401161864,-0.4595146179199219,28.050781111232936,-2.563994083470523,14.912393214232969,53,32,0.0,16399,37130364021647,9,39.5,321.3421325683594,0.027800001204013824,16,-0.0,1902.9177342976868,1.57542003E9,,,,0,,1,-2.11,35.9,0.0,0.0,,,C,313851404442744
Raw,1619345912440,214237039000000,18,,-1303166893401161864,-0.4595146179199219,28.050781111232936,-2.563994083470523,14.912393214232969,53,14,0.0,49359,47912365170923,11,37.6,606.2002563476562,0.030700000002980232,16,-0.0,1875.955906227098,1.59806246E9,,,,0,,3,-3.9,33.6,3812.53125,10.137558937072754,,,C,313851404442744
Raw,1619345912440,214237039000000,18,,-1303166893401161864,-0.4595146179199219,28.050781111232936,-2.563994083470523,14.912393214232969,53,6,0.0,49359,47912362233989,61,22.4,488.588134765625,1.7345000505447388,16,0.0,0.0,1.59975002E9,,,,0,,3,-3.9,18.4,3812.53125,10.137558937072754,,,C,313851404442744
Raw,1619345912440,214237039000000,18,,-1303166893401161864,-0.4595146179199219,28.050781111232936,-2.563994083470523,14.912393214232969,53,18,0.0,49359,47912370519272,9,39.0,-688.0242919921875,0.03680000081658363,16,-0.0,1873.3183770502228,1.60031245E9,,,,0,,3,-3.9,35.0,3812.53125,10.137558937072754,,,C,313851404442744
Raw,1619345912440,214237039000000,18,,-1303166893401161864,-0.4595146179199219,28.050781111232936,-2.563994083470523,14.912393214232969,53,16,0.0,49359,47912370218433,40,25.2,-546.2744750976562,0.8014999628067017,16,0.0,0.0,1.60143744E9,,,,0,,3,-3.9,21.2,3812.53125,10.137558937072754,,,C,313851404442744
Raw,1619345912440,214237039000000,18,,-1303166893401161864,-0.4595146179199219,28.050781111232936,-2.563994083470523,14.912393214232969,53,15,0.0,49359,47912375279756,14,34.1,106.59099578857422,0.06350000202655792,16,-0.0,1871.3450173911542,1.602E9,,,,0,,3,-3.9,30.1,3812.53125,10.137558937072754,,,C,313851404442744
Raw,1619345912440,214237039000000,18,,-1303166893401161864,-0.4595146179199219,28.050781111232936,-2.563994083470523,14.912393214232969,53,24,0.0,49359,47912366029670,53,23.6,682.4655151367188,0.9254999756813049,16,0.0,0.0,1.60312499E9,,,,0,,3,-3.9,19.6,3812.53125,10.137558937072754,,,C,313851404442744
Raw,1619345912440,214237039000000,18,,-1303166893401161864,-0.4595146179199219,28.050781111232936,-2.563994083470523,14.912393214232969,53,17,0.0,49359,47912375589822,14,34.0,18.269519805908203,0.06350000202655792,16,-0.0,1868.720428711333,1.60424998E9,,,,0,,3,-3.9,30.0,3812.53125,10.137558937072754,,,C,313851404442744
Raw,1619345912440,214237039000000,18,,-1303166893401161864,-0.4595146179199219,28.050781111232936,-2.563994083470523,14.912393214232969,53,7,0.0,49359,47912362004838,70,21.7,-62.90773010253906,1.8144999742507935,16,0.0,0.0,1.60481254E9,,,,0,,3,-3.9,17.7,3812.53125,10.137558937072754,,,C,313851404442744
Raw,1619345912440,214237039000000,18,,-1303166893401161864,-0.4595146179199219,28.050781111232936,-2.563994083470523,14.912393214232969,53,34,0.0,16399,37116366800820,10,38.4,-85.06013488769531,0.03140000253915787,16,-0.0,1920.3757538518662,1.56109798E9,,,,0,,5,-0.37,34.1,-1523.0985107421875,8.863225936889648,,,I,313851404442744
Raw,1619345912440,214237039000000,18,,-1303166893401161864,-0.4595146179199219,28.050781111232936,-2.563994083470523,14.912393214232969,53,25,0.0,16399,37116367370839,12,36.4,25.88018798828125,0.03449999913573265,16,-0.0,1920.3757538518662,1.56109798E9,,,,0,,5,-0.37,32.1,-1523.0985107421875,8.863225936889648,,,I,313851404442744
Raw,1619345912440,214237039000000,18,,-1303166893401161864,-0.4595146179199219,28.050781111232936,-2.563994083470523,14.912393214232969,53,24,0.0,16399,37116358299899,12,36.7,520.7674560546875,0.06599999964237213,16,-0.0,1920.3757538518662,1.56109798E9,,,,0,,5,-0.37,32.400000000000006,-1523.0985107421875,8.863225936889648,,,I,313851404442744
Raw,1619345912440,214237039000000,18,,-1303166893401161864,-0.4595146179199219,28.050781111232936,-2.563994083470523,14.912393214232969,53,23,0.0,16399,37116360788945,21,31.1,-470.4880676269531,0.060600001364946365,16,-0.0,1920.3757538518662,1.56109798E9,,,,0,,5,-0.37,26.8,-1523.0985107421875,8.863225936889648,,,I,313851404442744
Raw,1619345912440,214237039000000,18,,-1303166893401161864,-0.4595146179199219,28.050781111232936,-2.563994083470523,14.912393214232969,53,13,0.0,16399,37116312164853,21,30.6,-179.01539611816406,0.07860000431537628,16,-0.0,1920.3757538518662,1.56109798E9,,,,0,,5,-0.37,26.3,-1523.0985107421875,8.863225936889648,,,I,313851404442744
Raw,1619345912440,214237039000000,18,,-1303166893401161864,-0.4595146179199219,28.050781111232936,-2.563994083470523,14.912393214232969,53,12,0.0,16399,37116366184838,21,31.0,239.91616821289062,0.06960000097751617,16,-0.0,1920.3757538518662,1.56109798E9,,,,0,,5,-0.37,26.7,-1523.0985107421875,8.863225936889648,,,I,313851404442744
Raw,1619345912440,214237039000000,18,,-1303166893401161864,-0.4595146179199219,28.050781111232936,-2.563994083470523,14.912393214232969,53,11,0.0,16399,37116365857396,12,36.6,-373.146240234375,0.03150000050663948,16,-0.0,1920.3757538518662,1.56109798E9,,,,0,,5,-0.37,32.300000000000004,-1523.0985107421875,8.863225936889648,,,I,313851404442744
Raw,1619345912440,214237039000000,18,,-1303166893401161864,-0.4595146179199219,28.050781111232936,-2.563994083470523,14.912393214232969,53,5,0.0,16399,37116308621748,35,26.9,-3.2934770584106445,5.75160026550293,16,0.0,0.0,1.56109798E9,,,,0,,5,-0.37,22.599999999999998,-1523.0985107421875,8.863225936889648,,,I,313851404442744
Raw,1619345912440,214237039000000,18,,-1303166893401161864,-0.4595146179199219,28.050781111232936,-2.563994083470523,14.912393214232969,53,1,0.0,23567,37130361215380,40,26.0,6.879116535186768,0.7669999599456787,16,0.0,0.0,1.57542003E9,,,,0,,6,-2.07,21.7,-1463.9151611328125,9.010357856750488,,,C,313851404442744
Raw,1619345912440,214237039000000,18,,-1303166893401161864,-0.4595146179199219,28.050781111232936,-2.563994083470523,14.912393214232969,53,4,0.0,23567,37130348939545,27,29.1,496.20977783203125,0.6154999732971191,16,0.0,0.0,1.57542003E9,,,,0,,6,-2.07,24.8,-1463.9151611328125,9.010357856750488,,,C,313851404442744
Raw,1619345912440,214237039000000,18,,-1303166893401161864,-0.4595146179199219,28.050781111232936,-2.563994083470523,14.912393214232969,53,9,0.0,23567,37130356582140,24,29.8,151.09251403808594,0.1315000057220459,16,-0.0,1902.9177342976868,1.57542003E9,,,,0,,6,-2.07,25.5,-1463.9151611328125,9.010357856750488,,,C,313851404442744
Raw,1619345912440,214237039000000,18,,-1303166893401161864,-0.4595146179199219,28.050781111232936,-2.563994083470523,14.912393214232969,53,13,0.0,23567,37130354752431,106,19.1,269.7222595214844,2.0185000896453857,16,0.0,0.0,1.57542003E9,,,,0,,6,-2.07,14.8,-1463.9151611328125,9.010357856750488,,,C,313851404442744
Raw,1619345912440,214237039000000,18,,-1303166893401161864,-0.4595146179199219,28.050781111232936,-2.563994083470523,14.912393214232969,53,21,0.0,23567,37130354039616,19,31.7,372.61688232421875,0.08420000225305557,16,-0.0,1902.9177342976868,1.57542003E9,,,,0,,6,-2.07,27.4,-1463.9151611328125,9.010357856750488,,,C,313851404442744
Raw,1619345912440,214237039000000,18,,-1303166893401161864,-0.4595146179199219,28.050781111232936,-2.563994083470523,14.912393214232969,53,26,0.0,23567,37130360501159,12,36.9,-296.5383605957031,0.06300000101327896,16,-0.0,1902.9177342976868,1.57542003E9,,,,0,,6,-2.07,32.6,-1463.9151611328125,9.010357856750488,,,C,313851404442744
Raw,1619345912440,214237039000000,18,,-1303166893401161864,-0.4595146179199219,28.050781111232936,-2.563994083470523,14.912393214232969,53,31,0.0,23567,37130354692929,17,32.3,-387.8627624511719,0.07430000603199005,16,-0.0,1902.9177342976868,1.57542003E9,,,,0,,6,-2.07,27.999999999999996,-1463.9151611328125,9.010357856750488,,,C,313851404442744
Raw,1619345912440,214237039000000,18,,-1303166893401161864,-0.4595146179199219,28.050781111232936,-2.563994083470523,14.912393214232969,53,33,0.0,23567,37130350502797,35,26.9,-615.19091796875,0.7684999704360962,16,0.0,0.0,1.57542003E9,,,,0,,6,-2.07,22.599999999999998,-1463.9151611328125,9.010357856750488,,,C,313851404442744
Raw,1619345912440,214237039000000,18,,-1303166893401161864,-0.4595146179199219,28.050781111232936,-2.563994083470523,14.912393214232969,53,6,0.0,81935,37130360521953,5,32.3,387.0731201171875,0.050999999046325684,16,-0.0,2548.2550006752426,1.17645005E9,,,,0,,1,-0.16,27.4,-7840.91357421875,6.478073596954346,,,Q,313851404442744
Raw,1619345912440,214237039000000,18,,-1303166893401161864,-0.4595146179199219,28.050781111232936,-2.563994083470523,14.912393214232969,53,24,0.0,81935,37130360731969,3,36.1,687.8812255859375,0.012800000607967377,16,-0.0,2548.2550006752426,1.17645005E9,,,,0,,1,-0.16,31.200000000000003,-7840.91357421875,6.478073596954346,,,Q,313851404442744
Raw,1619345912440,214237039000000,18,,-1303166893401161864,-0.4595146179199219,28.050781111232936,-2.563994083470523,14.912393214232969,53,25,0.0,81935,37130373028159,4,34.1,-104.37728881835938,0.06550000607967377,16,-0.0,2548.2550006752426,1.17645005E9,,,,0,,1,-0.16,29.200000000000003,-7840.91357421875,6.478073596954346,,,Q,313851404442744
Raw,1619345912440,214237039000000,18,,-1303166893401161864,-0.4595146179199219,28.050781111232936,-2.563994083470523,14.912393214232969,53,32,0.0,81935,37130364029485,5,33.8,321.40728759765625,0.054099999368190765,16,-0.0,2548.2550006752426,1.17645005E9,,,,0,,1,-0.16,28.9,-7840.91357421875,6.478073596954346,,,Q,313851404442744
Raw,1619345912440,214237039000000,18,,-1303166893401161864,-0.4595146179199219,28.050781111232936,-2.563994083470523,14.912393214232969,53,1,0.0,81935,37130361221747,6,31.9,7.1144256591796875,0.05860000103712082,16,-0.0,2548.2550006752426,1.17645005E9,,,,0,,6,-0.16,26.599999999999998,-7840.80810546875,61.805728912353516,,,Q,313851404442744
Raw,1619345912440,214237039000000,18,,-1303166893401161864,-0.4595146179199219,28.050781111232936,-2.563994083470523,14.912393214232969,53,4,0.0,81935,37130348945925,7,29.3,496.7008056640625,0.10209999978542328,16,-0.0,2548.2550006752426,1.17645005E9,,,,0,,6,-0.16,24.0,-7840.80810546875,61.805728912353516,,,Q,313851404442744
Raw,1619345912440,214237039000000,18,,-1303166893401161864,-0.4595146179199219,28.050781111232936,-2.563994083470523,14.912393214232969,53,9,0.0,81935,37130356588507,4,34.4,151.09979248046875,0.07000000774860382,16,-0.0,2548.2550006752426,1.17645005E9,,,,0,,6,-0.16,29.099999999999998,-7840.80810546875,61.805728912353516,,,Q,313851404442744
Raw,1619345912440,214237039000000,18,,-1303166893401161864,-0.4595146179199219,28.050781111232936,-2.563994083470523,14.912393214232969,53,21,0.0,81935,37130354045967,6,31.4,372.0653381347656,0.07810000330209732,16,-0.0,2548.2550006752426,1.17645005E9,,,,0,,6,-0.16,26.099999999999998,-7840.80810546875,61.805728912353516,,,Q,313851404442744
Raw,1619345912440,214237039000000,18,,-1303166893401161864,-0.4595146179199219,28.050781111232936,-2.563994083470523,14.912393214232969,53,26,0.0,81935,37130360507513,3,37.8,-296.5008850097656,0.041600000113248825,16,-0.0,2548.2550006752426,1.17645005E9,,,,0,,6,-0.16,32.5,-7840.80810546875,61.805728912353516,,,Q,313851404442744
Raw,1619345912440,214237039000000,18,,-1303166893401161864,-0.4595146179199219,28.050781111232936,-2.563994083470523,14.912393214232969,53,31,0.0,81935,37130354699285,3,36.8,-387.7906799316406,0.06379999965429306,16,-0.0,2548.2550006752426,1.17645005E9,,,,0,,6,-0.16,31.499999999999996,-7840.80810546875,61.805728912353516,,,Q,313851404442744
Raw,1619345912440,214237039000000,18,,-1303166893401161864,-0.4595146179199219,28.050781111232936,-2.563994083470523,14.912393214232969,53,33,0.0,81935,37130350509203,3,36.9,-615.5490112304688,0.05780000239610672,16,-0.0,2548.2550006752426,1.17645005E9,,,,0,,6,-0.16,31.599999999999998,-7840.80810546875,61.805728912353516,,,Q,313851404442744
Raw,1619345912440,214237039000000,18,,-1303166893401161864,-0.4595146179199219,28.050781111232936,-2.563994083470523,14.912393214232969,53,23,0.0,16399,37116360795270,5,33.4,-469.298095703125,0.07810000330209732,16,-0.0,2548.2550006752426,1.17645005E9,,,,0,,5,-0.16,28.9,-7791.087890625,63.072513580322266,,,Q,313851404442744
Raw,1619345912440,214237039000000,18,,-1303166893401161864,-0.4595146179199219,28.050781111232936,-2.563994083470523,14.912393214232969,53,24,0.0,16399,37116358306169,5,32.7,520.7645874023438,0.10509999841451645,16,-0.0,2548.2550006752426,1.17645005E9,,,,0,,5,-0.16,28.200000000000003,-7791.087890625,63.072513580322266,,,Q,313851404442744
Raw,1619345912440,214237039000000,18,,-1303166893401161864,-0.4595146179199219,28.050781111232936,-2.563994083470523,14.912393214232969,53,25,0.0,16399,37116367377124,6,29.7,25.855897903442383,0.10999999940395355,16,-0.0,2548.2550006752426,1.17645005E9,,,,0,,5,-0.16,25.2,-7791.087890625,63.072513580322266,,,Q,313851404442744
Raw,1619345912440,214237039000000,18,,-1303166893401161864,-0.4595146179199219,28.050781111232936,-2.563994083470523,14.912393214232969,53,34,0.0,16399,37116366807083,4,34.1,-85.13986206054688,0.08500000089406967,16,-0.0,2548.2550006752426,1.17645005E9,,,,0,,5,-0.16,29.6,-7791.087890625,63.072513580322266,,,Q,313851404442744
Raw,1619345912440,214237039000000,18,,-1303166893401161864,-0.4595146179199219,28.050781111232936,-2.563994083470523,14.912393214232969,53,2,0.0,16399,37130313167545,31,28.9,106.58182525634766,0.6360000371932983,16,0.0,0.0,1.17645005E9,,,,0,,7,-0.14,23.599999999999998,,,,,C,313851404442744
Raw,1619345912440,214237039000000,18,,-1303166893401161864,-0.4595146179199219,28.050781111232936,-2.563994083470523,14.912393214232969,53,3,0.0,16399,37130302328430,40,26.8,-12.37190055847168,0.7294999957084656,16,0.0,0.0,1.17645005E9,,,,0,,7,-0.14,21.5,,,,,C,313851404442744
Raw,1619345912440,214237039000000,18,,-1303166893401161864,-0.4595146179199219,28.050781111232936,-2.563994083470523,14.912393214232969,53,6,0.0,16399,37130312011522,27,29.3,12.856074333190918,0.5945000052452087,16,0.0,0.0,1.17645005E9,,,,0,,7,-0.14,24.0,,,,,C,313851404442744
Raw,1619345912440,214237039000000,18,,-1303166893401161864,-0.4595146179199219,28.050781111232936,-2.563994083470523,14.912393214232969,53,9,0.0,16399,37130303554818,27,29.8,-155.67445373535156,0.581000030040741,16,0.0,0.0,1.17645005E9,,,,0,,7,-0.14,24.5,,,,,C,313851404442744